$GPGGA,025100.906,3611.308,N,11511.154,W,1,12,1.0,0.0,M,0.0,M,,*7E
$GPGSA,A,3,01,02,03,04,05,06,07,08,09,10,11,12,1.0,1.0,1.0*30
$GPRMC,025100.906,A,3611.308,N,11511.154,W,058.3,090.0,030120,000.0,W*6D
$GPGGA,025101.906,3611.308,N,11511.134,W,1,12,1.0,0.0,M,0.0,M,,*79
$GPGSA,A,3,01,02,03,04,05,06,07,08,09,10,11,12,1.0,1.0,1.0*30
$GPRMC,025101.906,A,3611.308,N,11511.134,W,058.3,090.0,030120,000.0,W*6A
$GPGGA,025102.906,3611.308,N,11511.114,W,1,12,1.0,0.0,M,0.0,M,,*78
$GPGSA,A,3,01,02,03,04,05,06,07,08,09,10,11,12,1.0,1.0,1.0*30
$GPRMC,025102.906,A,3611.308,N,11511.114,W,058.3,090.0,030120,000.0,W*6B
$GPGGA,025103.906,3611.308,N,11511.094,W,1,12,1.0,0.0,M,0.0,M,,*70
$GPGSA,A,3,01,02,03,04,05,06,07,08,09,10,11,12,1.0,1.0,1.0*30
$GPRMC,025103.906,A,3611.308,N,11511.094,W,058.3,090.0,030120,000.0,W*63
$GPGGA,025104.906,3611.308,N,11511.074,W,1,12,1.0,0.0,M,0.0,M,,*79
$GPGSA,A,3,01,02,03,04,05,06,07,08,09,10,11,12,1.0,1.0,1.0*30
$GPRMC,025104.906,A,3611.308,N,11511.074,W,058.3,090.0,030120,000.0,W*6A
$GPGGA,025105.906,3611.308,N,11511.054,W,1,12,1.0,0.0,M,0.0,M,,*7A
$GPGSA,A,3,01,02,03,04,05,06,07,08,09,10,11,12,1.0,1.0,1.0*30
$GPRMC,025105.906,A,3611.308,N,11511.054,W,058.3,090.0,030120,000.0,W*69
$GPGGA,025106.906,3611.308,N,11511.034,W,1,12,1.0,0.0,M,0.0,M,,*7F
$GPGSA,A,3,01,02,03,04,05,06,07,08,09,10,11,12,1.0,1.0,1.0*30
$GPRMC,025106.906,A,3611.308,N,11511.034,W,058.3,090.0,030120,000.0,W*6C
$GPGGA,025107.906,3611.308,N,11511.014,W,1,12,1.0,0.0,M,0.0,M,,*7C
$GPGSA,A,3,01,02,03,04,05,06,07,08,09,10,11,12,1.0,1.0,1.0*30
$GPRMC,025107.906,A,3611.308,N,11511.014,W,058.3,090.0,030120,000.0,W*6F
$GPGGA,025108.906,3611.308,N,11510.994,W,1,12,1.0,0.0,M,0.0,M,,*73
$GPGSA,A,3,01,02,03,04,05,06,07,08,09,10,11,12,1.0,1.0,1.0*30
$GPRMC,025108.906,A,3611.308,N,11510.994,W,058.3,090.0,030120,000.0,W*60
$GPGGA,025109.906,3611.308,N,11510.973,W,1,12,1.0,0.0,M,0.0,M,,*7B
$GPGSA,A,3,01,02,03,04,05,06,07,08,09,10,11,12,1.0,1.0,1.0*30
$GPRMC,025109.906,A,3611.308,N,11510.973,W,058.3,090.0,030120,000.0,W*68
$GPGGA,025110.906,3611.308,N,11510.953,W,1,12,1.0,0.0,M,0.0,M,,*71
$GPGSA,A,3,01,02,03,04,05,06,07,08,09,10,11,12,1.0,1.0,1.0*30
$GPRMC,025110.906,A,3611.308,N,11510.953,W,058.3,090.0,030120,000.0,W*62
$GPGGA,025111.906,3611.308,N,11510.933,W,1,12,1.0,0.0,M,0.0,M,,*76
$GPGSA,A,3,01,02,03,04,05,06,07,08,09,10,11,12,1.0,1.0,1.0*30
$GPRMC,025111.906,A,3611.308,N,11510.933,W,058.3,090.0,030120,000.0,W*65
$GPGGA,025112.906,3611.308,N,11510.913,W,1,12,1.0,0.0,M,0.0,M,,*77
$GPGSA,A,3,01,02,03,04,05,06,07,08,09,10,11,12,1.0,1.0,1.0*30
$GPRMC,025112.906,A,3611.308,N,11510.913,W,058.3,090.0,030120,000.0,W*64
$GPGGA,025113.906,3611.308,N,11510.893,W,1,12,1.0,0.0,M,0.0,M,,*7F
$GPGSA,A,3,01,02,03,04,05,06,07,08,09,10,11,12,1.0,1.0,1.0*30
$GPRMC,025113.906,A,3611.308,N,11510.893,W,058.3,090.0,030120,000.0,W*6C
$GPGGA,025114.906,3611.308,N,11510.873,W,1,12,1.0,0.0,M,0.0,M,,*76
$GPGSA,A,3,01,02,03,04,05,06,07,08,09,10,11,12,1.0,1.0,1.0*30
$GPRMC,025114.906,A,3611.308,N,11510.873,W,058.3,090.0,030120,000.0,W*65
$GPGGA,025115.906,3611.308,N,11510.853,W,1,12,1.0,0.0,M,0.0,M,,*75
$GPGSA,A,3,01,02,03,04,05,06,07,08,09,10,11,12,1.0,1.0,1.0*30
$GPRMC,025115.906,A,3611.308,N,11510.853,W,058.3,090.0,030120,000.0,W*66
$GPGGA,025116.906,3611.308,N,11510.833,W,1,12,1.0,0.0,M,0.0,M,,*70
$GPGSA,A,3,01,02,03,04,05,06,07,08,09,10,11,12,1.0,1.0,1.0*30
$GPRMC,025116.906,A,3611.308,N,11510.833,W,058.3,090.0,030120,000.0,W*63
$GPGGA,025117.906,3611.308,N,11510.813,W,1,12,1.0,0.0,M,0.0,M,,*73
$GPGSA,A,3,01,02,03,04,05,06,07,08,09,10,11,12,1.0,1.0,1.0*30
$GPRMC,025117.906,A,3611.308,N,11510.813,W,058.3,090.0,030120,000.0,W*60
$GPGGA,025118.906,3611.308,N,11510.793,W,1,12,1.0,0.0,M,0.0,M,,*7B
$GPGSA,A,3,01,02,03,04,05,06,07,08,09,10,11,12,1.0,1.0,1.0*30
$GPRMC,025118.906,A,3611.308,N,11510.793,W,058.3,090.0,030120,000.0,W*68
$GPGGA,025119.906,3611.308,N,11510.773,W,1,12,1.0,0.0,M,0.0,M,,*74
$GPGSA,A,3,01,02,03,04,05,06,07,08,09,10,11,12,1.0,1.0,1.0*30
$GPRMC,025119.906,A,3611.308,N,11510.773,W,058.3,090.0,030120,000.0,W*67
$GPGGA,025120.906,3611.308,N,11510.753,W,1,12,1.0,0.0,M,0.0,M,,*7C
$GPGSA,A,3,01,02,03,04,05,06,07,08,09,10,11,12,1.0,1.0,1.0*30
$GPRMC,025120.906,A,3611.308,N,11510.753,W,058.3,090.0,030120,000.0,W*6F
$GPGGA,025121.906,3611.308,N,11510.733,W,1,12,1.0,0.0,M,0.0,M,,*7B
$GPGSA,A,3,01,02,03,04,05,06,07,08,09,10,11,12,1.0,1.0,1.0*30
$GPRMC,025121.906,A,3611.308,N,11510.733,W,058.3,090.0,030120,000.0,W*68
$GPGGA,025122.906,3611.308,N,11510.713,W,1,12,1.0,0.0,M,0.0,M,,*7A
$GPGSA,A,3,01,02,03,04,05,06,07,08,09,10,11,12,1.0,1.0,1.0*30
$GPRMC,025122.906,A,3611.308,N,11510.713,W,058.3,090.0,030120,000.0,W*69
$GPGGA,025123.906,3611.308,N,11510.693,W,1,12,1.0,0.0,M,0.0,M,,*72
$GPGSA,A,3,01,02,03,04,05,06,07,08,09,10,11,12,1.0,1.0,1.0*30
$GPRMC,025123.906,A,3611.308,N,11510.693,W,058.3,090.0,030120,000.0,W*61
$GPGGA,025124.906,3611.308,N,11510.673,W,1,12,1.0,0.0,M,0.0,M,,*7B
$GPGSA,A,3,01,02,03,04,05,06,07,08,09,10,11,12,1.0,1.0,1.0*30
$GPRMC,025124.906,A,3611.308,N,11510.673,W,058.3,090.0,030120,000.0,W*68
$GPGGA,025125.906,3611.308,N,11510.653,W,1,12,1.0,0.0,M,0.0,M,,*78
$GPGSA,A,3,01,02,03,04,05,06,07,08,09,10,11,12,1.0,1.0,1.0*30
$GPRMC,025125.906,A,3611.308,N,11510.653,W,058.3,090.0,030120,000.0,W*6B
$GPGGA,025126.906,3611.308,N,11510.632,W,1,12,1.0,0.0,M,0.0,M,,*7C
$GPGSA,A,3,01,02,03,04,05,06,07,08,09,10,11,12,1.0,1.0,1.0*30
$GPRMC,025126.906,A,3611.308,N,11510.632,W,058.3,090.0,030120,000.0,W*6F
$GPGGA,025127.906,3611.308,N,11510.612,W,1,12,1.0,0.0,M,0.0,M,,*7F
$GPGSA,A,3,01,02,03,04,05,06,07,08,09,10,11,12,1.0,1.0,1.0*30
$GPRMC,025127.906,A,3611.308,N,11510.612,W,058.3,090.0,030120,000.0,W*6C
$GPGGA,025128.906,3611.308,N,11510.592,W,1,12,1.0,0.0,M,0.0,M,,*7B
$GPGSA,A,3,01,02,03,04,05,06,07,08,09,10,11,12,1.0,1.0,1.0*30
$GPRMC,025128.906,A,3611.308,N,11510.592,W,058.3,090.0,030120,000.0,W*68
$GPGGA,025129.906,3611.308,N,11510.572,W,1,12,1.0,0.0,M,0.0,M,,*74
$GPGSA,A,3,01,02,03,04,05,06,07,08,09,10,11,12,1.0,1.0,1.0*30
$GPRMC,025129.906,A,3611.308,N,11510.572,W,058.3,090.0,030120,000.0,W*67
$GPGGA,025130.906,3611.308,N,11510.552,W,1,12,1.0,0.0,M,0.0,M,,*7E
$GPGSA,A,3,01,02,03,04,05,06,07,08,09,10,11,12,1.0,1.0,1.0*30
$GPRMC,025130.906,A,3611.308,N,11510.552,W,058.3,090.0,030120,000.0,W*6D
$GPGGA,025131.906,3611.308,N,11510.532,W,1,12,1.0,0.0,M,0.0,M,,*79
$GPGSA,A,3,01,02,03,04,05,06,07,08,09,10,11,12,1.0,1.0,1.0*30
$GPRMC,025131.906,A,3611.308,N,11510.532,W,058.3,090.0,030120,000.0,W*6A
$GPGGA,025132.906,3611.308,N,11510.512,W,1,12,1.0,0.0,M,0.0,M,,*78
$GPGSA,A,3,01,02,03,04,05,06,07,08,09,10,11,12,1.0,1.0,1.0*30
$GPRMC,025132.906,A,3611.308,N,11510.512,W,058.3,090.0,030120,000.0,W*6B
$GPGGA,025133.906,3611.308,N,11510.492,W,1,12,1.0,0.0,M,0.0,M,,*70
$GPGSA,A,3,01,02,03,04,05,06,07,08,09,10,11,12,1.0,1.0,1.0*30
$GPRMC,025133.906,A,3611.308,N,11510.492,W,058.3,090.0,030120,000.0,W*63
$GPGGA,025134.906,3611.308,N,11510.472,W,1,12,1.0,0.0,M,0.0,M,,*79
$GPGSA,A,3,01,02,03,04,05,06,07,08,09,10,11,12,1.0,1.0,1.0*30
$GPRMC,025134.906,A,3611.308,N,11510.472,W,058.3,090.0,030120,000.0,W*6A
$GPGGA,025135.906,3611.308,N,11510.452,W,1,12,1.0,0.0,M,0.0,M,,*7A
$GPGSA,A,3,01,02,03,04,05,06,07,08,09,10,11,12,1.0,1.0,1.0*30
$GPRMC,025135.906,A,3611.308,N,11510.452,W,058.3,090.0,030120,000.0,W*69
$GPGGA,025136.906,3611.308,N,11510.432,W,1,12,1.0,0.0,M,0.0,M,,*7F
$GPGSA,A,3,01,02,03,04,05,06,07,08,09,10,11,12,1.0,1.0,1.0*30
$GPRMC,025136.906,A,3611.308,N,11510.432,W,058.3,090.0,030120,000.0,W*6C
$GPGGA,025137.906,3611.308,N,11510.412,W,1,12,1.0,0.0,M,0.0,M,,*7C
$GPGSA,A,3,01,02,03,04,05,06,07,08,09,10,11,12,1.0,1.0,1.0*30
$GPRMC,025137.906,A,3611.308,N,11510.412,W,058.3,090.0,030120,000.0,W*6F
$GPGGA,025138.906,3611.308,N,11510.392,W,1,12,1.0,0.0,M,0.0,M,,*7C
$GPGSA,A,3,01,02,03,04,05,06,07,08,09,10,11,12,1.0,1.0,1.0*30
$GPRMC,025138.906,A,3611.308,N,11510.392,W,058.3,090.0,030120,000.0,W*6F
$GPGGA,025139.906,3611.308,N,11510.372,W,1,12,1.0,0.0,M,0.0,M,,*73
$GPGSA,A,3,01,02,03,04,05,06,07,08,09,10,11,12,1.0,1.0,1.0*30
$GPRMC,025139.906,A,3611.308,N,11510.372,W,058.3,090.0,030120,000.0,W*60
$GPGGA,025140.906,3611.308,N,11510.352,W,1,12,1.0,0.0,M,0.0,M,,*7F
$GPGSA,A,3,01,02,03,04,05,06,07,08,09,10,11,12,1.0,1.0,1.0*30
$GPRMC,025140.906,A,3611.308,N,11510.352,W,058.3,090.0,030120,000.0,W*6C
$GPGGA,025141.906,3611.308,N,11510.332,W,1,12,1.0,0.0,M,0.0,M,,*78
$GPGSA,A,3,01,02,03,04,05,06,07,08,09,10,11,12,1.0,1.0,1.0*30
$GPRMC,025141.906,A,3611.308,N,11510.332,W,058.3,090.0,030120,000.0,W*6B
$GPGGA,025142.906,3611.308,N,11510.312,W,1,12,1.0,0.0,M,0.0,M,,*79
$GPGSA,A,3,01,02,03,04,05,06,07,08,09,10,11,12,1.0,1.0,1.0*30
$GPRMC,025142.906,A,3611.308,N,11510.312,W,058.3,090.0,030120,000.0,W*6A
$GPGGA,025143.906,3611.308,N,11510.292,W,1,12,1.0,0.0,M,0.0,M,,*71
$GPGSA,A,3,01,02,03,04,05,06,07,08,09,10,11,12,1.0,1.0,1.0*30
$GPRMC,025143.906,A,3611.308,N,11510.292,W,058.3,090.0,030120,000.0,W*62
$GPGGA,025144.906,3611.308,N,11510.271,W,1,12,1.0,0.0,M,0.0,M,,*7B
$GPGSA,A,3,01,02,03,04,05,06,07,08,09,10,11,12,1.0,1.0,1.0*30
$GPRMC,025144.906,A,3611.308,N,11510.271,W,058.3,090.0,030120,000.0,W*68
$GPGGA,025145.906,3611.308,N,11510.251,W,1,12,1.0,0.0,M,0.0,M,,*78
$GPGSA,A,3,01,02,03,04,05,06,07,08,09,10,11,12,1.0,1.0,1.0*30
$GPRMC,025145.906,A,3611.308,N,11510.251,W,058.3,090.0,030120,000.0,W*6B
$GPGGA,025146.906,3611.308,N,11510.231,W,1,12,1.0,0.0,M,0.0,M,,*7D
$GPGSA,A,3,01,02,03,04,05,06,07,08,09,10,11,12,1.0,1.0,1.0*30
$GPRMC,025146.906,A,3611.308,N,11510.231,W,058.3,090.0,030120,000.0,W*6E
$GPGGA,025147.906,3611.308,N,11510.211,W,1,12,1.0,0.0,M,0.0,M,,*7E
$GPGSA,A,3,01,02,03,04,05,06,07,08,09,10,11,12,1.0,1.0,1.0*30
$GPRMC,025147.906,A,3611.308,N,11510.211,W,058.3,090.0,030120,000.0,W*6D
$GPGGA,025148.906,3611.308,N,11510.191,W,1,12,1.0,0.0,M,0.0,M,,*7A
$GPGSA,A,3,01,02,03,04,05,06,07,08,09,10,11,12,1.0,1.0,1.0*30
$GPRMC,025148.906,A,3611.308,N,11510.191,W,058.3,090.0,030120,000.0,W*69
$GPGGA,025149.906,3611.308,N,11510.171,W,1,12,1.0,0.0,M,0.0,M,,*75
$GPGSA,A,3,01,02,03,04,05,06,07,08,09,10,11,12,1.0,1.0,1.0*30
$GPRMC,025149.906,A,3611.308,N,11510.171,W,058.3,090.0,030120,000.0,W*66
$GPGGA,025150.906,3611.308,N,11510.151,W,1,12,1.0,0.0,M,0.0,M,,*7F
$GPGSA,A,3,01,02,03,04,05,06,07,08,09,10,11,12,1.0,1.0,1.0*30
$GPRMC,025150.906,A,3611.308,N,11510.151,W,058.3,090.0,030120,000.0,W*6C
$GPGGA,025151.906,3611.308,N,11510.131,W,1,12,1.0,0.0,M,0.0,M,,*78
$GPGSA,A,3,01,02,03,04,05,06,07,08,09,10,11,12,1.0,1.0,1.0*30
$GPRMC,025151.906,A,3611.308,N,11510.131,W,058.3,090.0,030120,000.0,W*6B
$GPGGA,025152.906,3611.308,N,11510.111,W,1,12,1.0,0.0,M,0.0,M,,*79
$GPGSA,A,3,01,02,03,04,05,06,07,08,09,10,11,12,1.0,1.0,1.0*30
$GPRMC,025152.906,A,3611.308,N,11510.111,W,058.3,090.0,030120,000.0,W*6A
$GPGGA,025153.906,3611.308,N,11510.091,W,1,12,1.0,0.0,M,0.0,M,,*71
$GPGSA,A,3,01,02,03,04,05,06,07,08,09,10,11,12,1.0,1.0,1.0*30
$GPRMC,025153.906,A,3611.308,N,11510.091,W,058.3,090.0,030120,000.0,W*62
$GPGGA,025154.906,3611.308,N,11510.071,W,1,12,1.0,0.0,M,0.0,M,,*78
$GPGSA,A,3,01,02,03,04,05,06,07,08,09,10,11,12,1.0,1.0,1.0*30
$GPRMC,025154.906,A,3611.308,N,11510.071,W,058.3,090.0,030120,000.0,W*6B
$GPGGA,025155.906,3611.308,N,11510.051,W,1,12,1.0,0.0,M,0.0,M,,*7B
$GPGSA,A,3,01,02,03,04,05,06,07,08,09,10,11,12,1.0,1.0,1.0*30
$GPRMC,025155.906,A,3611.308,N,11510.051,W,058.3,090.0,030120,000.0,W*68
$GPGGA,025156.906,3611.308,N,11510.031,W,1,12,1.0,0.0,M,0.0,M,,*7E
$GPGSA,A,3,01,02,03,04,05,06,07,08,09,10,11,12,1.0,1.0,1.0*30
$GPRMC,025156.906,A,3611.308,N,11510.031,W,058.3,090.0,030120,000.0,W*6D
$GPGGA,025157.906,3611.308,N,11510.011,W,1,12,1.0,0.0,M,0.0,M,,*7D
$GPGSA,A,3,01,02,03,04,05,06,07,08,09,10,11,12,1.0,1.0,1.0*30
$GPRMC,025157.906,A,3611.308,N,11510.011,W,058.3,090.0,030120,000.0,W*6E
$GPGGA,025158.906,3611.308,N,11509.991,W,1,12,1.0,0.0,M,0.0,M,,*7B
$GPGSA,A,3,01,02,03,04,05,06,07,08,09,10,11,12,1.0,1.0,1.0*30
$GPRMC,025158.906,A,3611.308,N,11509.991,W,058.3,090.0,030120,000.0,W*68
$GPGGA,025159.906,3611.308,N,11509.971,W,1,12,1.0,0.0,M,0.0,M,,*74
$GPGSA,A,3,01,02,03,04,05,06,07,08,09,10,11,12,1.0,1.0,1.0*30
$GPRMC,025159.906,A,3611.308,N,11509.971,W,058.3,090.0,030120,000.0,W*67
$GPGGA,025200.906,3611.308,N,11509.951,W,1,12,1.0,0.0,M,0.0,M,,*79
$GPGSA,A,3,01,02,03,04,05,06,07,08,09,10,11,12,1.0,1.0,1.0*30
$GPRMC,025200.906,A,3611.308,N,11509.951,W,058.3,090.0,030120,000.0,W*6A
$GPGGA,025201.906,3611.308,N,11509.930,W,1,12,1.0,0.0,M,0.0,M,,*7F
$GPGSA,A,3,01,02,03,04,05,06,07,08,09,10,11,12,1.0,1.0,1.0*30
$GPRMC,025201.906,A,3611.308,N,11509.930,W,058.3,090.0,030120,000.0,W*6C
$GPGGA,025202.906,3611.308,N,11509.910,W,1,12,1.0,0.0,M,0.0,M,,*7E
$GPGSA,A,3,01,02,03,04,05,06,07,08,09,10,11,12,1.0,1.0,1.0*30
$GPRMC,025202.906,A,3611.308,N,11509.910,W,058.3,090.0,030120,000.0,W*6D
$GPGGA,025203.906,3611.308,N,11509.890,W,1,12,1.0,0.0,M,0.0,M,,*76
$GPGSA,A,3,01,02,03,04,05,06,07,08,09,10,11,12,1.0,1.0,1.0*30
$GPRMC,025203.906,A,3611.308,N,11509.890,W,058.3,090.0,030120,000.0,W*65
$GPGGA,025204.906,3611.308,N,11509.870,W,1,12,1.0,0.0,M,0.0,M,,*7F
$GPGSA,A,3,01,02,03,04,05,06,07,08,09,10,11,12,1.0,1.0,1.0*30
$GPRMC,025204.906,A,3611.308,N,11509.870,W,058.3,090.0,030120,000.0,W*6C
$GPGGA,025205.906,3611.308,N,11509.850,W,1,12,1.0,0.0,M,0.0,M,,*7C
$GPGSA,A,3,01,02,03,04,05,06,07,08,09,10,11,12,1.0,1.0,1.0*30
$GPRMC,025205.906,A,3611.308,N,11509.850,W,058.3,090.0,030120,000.0,W*6F
$GPGGA,025206.906,3611.308,N,11509.830,W,1,12,1.0,0.0,M,0.0,M,,*79
$GPGSA,A,3,01,02,03,04,05,06,07,08,09,10,11,12,1.0,1.0,1.0*30
$GPRMC,025206.906,A,3611.308,N,11509.830,W,058.3,090.0,030120,000.0,W*6A
$GPGGA,025207.906,3611.308,N,11509.810,W,1,12,1.0,0.0,M,0.0,M,,*7A
$GPGSA,A,3,01,02,03,04,05,06,07,08,09,10,11,12,1.0,1.0,1.0*30
$GPRMC,025207.906,A,3611.308,N,11509.810,W,058.3,090.0,030120,000.0,W*69
$GPGGA,025208.906,3611.308,N,11509.790,W,1,12,1.0,0.0,M,0.0,M,,*72
$GPGSA,A,3,01,02,03,04,05,06,07,08,09,10,11,12,1.0,1.0,1.0*30
$GPRMC,025208.906,A,3611.308,N,11509.790,W,058.3,090.0,030120,000.0,W*61
$GPGGA,025209.906,3611.308,N,11509.770,W,1,12,1.0,0.0,M,0.0,M,,*7D
$GPGSA,A,3,01,02,03,04,05,06,07,08,09,10,11,12,1.0,1.0,1.0*30
$GPRMC,025209.906,A,3611.308,N,11509.770,W,058.3,090.0,030120,000.0,W*6E
$GPGGA,025210.906,3611.308,N,11509.750,W,1,12,1.0,0.0,M,0.0,M,,*77
$GPGSA,A,3,01,02,03,04,05,06,07,08,09,10,11,12,1.0,1.0,1.0*30
$GPRMC,025210.906,A,3611.308,N,11509.750,W,058.3,090.0,030120,000.0,W*64
$GPGGA,025211.906,3611.308,N,11509.730,W,1,12,1.0,0.0,M,0.0,M,,*70
$GPGSA,A,3,01,02,03,04,05,06,07,08,09,10,11,12,1.0,1.0,1.0*30
$GPRMC,025211.906,A,3611.308,N,11509.730,W,058.3,090.0,030120,000.0,W*63
$GPGGA,025212.906,3611.308,N,11509.710,W,1,12,1.0,0.0,M,0.0,M,,*71
$GPGSA,A,3,01,02,03,04,05,06,07,08,09,10,11,12,1.0,1.0,1.0*30
$GPRMC,025212.906,A,3611.308,N,11509.710,W,058.3,090.0,030120,000.0,W*62
$GPGGA,025213.906,3611.308,N,11509.690,W,1,12,1.0,0.0,M,0.0,M,,*79
$GPGSA,A,3,01,02,03,04,05,06,07,08,09,10,11,12,1.0,1.0,1.0*30
$GPRMC,025213.906,A,3611.308,N,11509.690,W,058.3,090.0,030120,000.0,W*6A
$GPGGA,025214.906,3611.308,N,11509.670,W,1,12,1.0,0.0,M,0.0,M,,*70
$GPGSA,A,3,01,02,03,04,05,06,07,08,09,10,11,12,1.0,1.0,1.0*30
$GPRMC,025214.906,A,3611.308,N,11509.670,W,058.3,090.0,030120,000.0,W*63
$GPGGA,025215.906,3611.308,N,11509.650,W,1,12,1.0,0.0,M,0.0,M,,*73
$GPGSA,A,3,01,02,03,04,05,06,07,08,09,10,11,12,1.0,1.0,1.0*30
$GPRMC,025215.906,A,3611.308,N,11509.650,W,058.3,182.0,030120,000.0,W*62
$GPGGA,025216.906,3611.291,N,11509.650,W,1,12,1.0,0.0,M,0.0,M,,*71
$GPGSA,A,3,01,02,03,04,05,06,07,08,09,10,11,12,1.0,1.0,1.0*30
$GPRMC,025216.906,A,3611.291,N,11509.650,W,058.3,182.0,030120,000.0,W*60
$GPGGA,025217.906,3611.275,N,11509.651,W,1,12,1.0,0.0,M,0.0,M,,*7B
$GPGSA,A,3,01,02,03,04,05,06,07,08,09,10,11,12,1.0,1.0,1.0*30
$GPRMC,025217.906,A,3611.275,N,11509.651,W,058.3,182.0,030120,000.0,W*6A
$GPGGA,025218.906,3611.259,N,11509.651,W,1,12,1.0,0.0,M,0.0,M,,*7A
$GPGSA,A,3,01,02,03,04,05,06,07,08,09,10,11,12,1.0,1.0,1.0*30
$GPRMC,025218.906,A,3611.259,N,11509.651,W,058.3,182.0,030120,000.0,W*6B
$GPGGA,025219.906,3611.243,N,11509.652,W,1,12,1.0,0.0,M,0.0,M,,*73
$GPGSA,A,3,01,02,03,04,05,06,07,08,09,10,11,12,1.0,1.0,1.0*30
$GPRMC,025219.906,A,3611.243,N,11509.652,W,058.3,182.0,030120,000.0,W*62
$GPGGA,025220.906,3611.227,N,11509.652,W,1,12,1.0,0.0,M,0.0,M,,*7B
$GPGSA,A,3,01,02,03,04,05,06,07,08,09,10,11,12,1.0,1.0,1.0*30
$GPRMC,025220.906,A,3611.227,N,11509.652,W,058.3,182.0,030120,000.0,W*6A
$GPGGA,025221.906,3611.210,N,11509.653,W,1,12,1.0,0.0,M,0.0,M,,*7F
$GPGSA,A,3,01,02,03,04,05,06,07,08,09,10,11,12,1.0,1.0,1.0*30
$GPRMC,025221.906,A,3611.210,N,11509.653,W,058.3,182.0,030120,000.0,W*6E
$GPGGA,025222.906,3611.194,N,11509.654,W,1,12,1.0,0.0,M,0.0,M,,*74
$GPGSA,A,3,01,02,03,04,05,06,07,08,09,10,11,12,1.0,1.0,1.0*30
$GPRMC,025222.906,A,3611.194,N,11509.654,W,058.3,182.0,030120,000.0,W*65
$GPGGA,025223.906,3611.178,N,11509.654,W,1,12,1.0,0.0,M,0.0,M,,*77
$GPGSA,A,3,01,02,03,04,05,06,07,08,09,10,11,12,1.0,1.0,1.0*30
$GPRMC,025223.906,A,3611.178,N,11509.654,W,058.3,182.0,030120,000.0,W*66
$GPGGA,025224.906,3611.162,N,11509.655,W,1,12,1.0,0.0,M,0.0,M,,*7A
$GPGSA,A,3,01,02,03,04,05,06,07,08,09,10,11,12,1.0,1.0,1.0*30
$GPRMC,025224.906,A,3611.162,N,11509.655,W,058.3,182.0,030120,000.0,W*6B
$GPGGA,025225.906,3611.146,N,11509.655,W,1,12,1.0,0.0,M,0.0,M,,*7D
$GPGSA,A,3,01,02,03,04,05,06,07,08,09,10,11,12,1.0,1.0,1.0*30
$GPRMC,025225.906,A,3611.146,N,11509.655,W,058.3,182.0,030120,000.0,W*6C
$GPGGA,025226.906,3611.130,N,11509.656,W,1,12,1.0,0.0,M,0.0,M,,*7C
$GPGSA,A,3,01,02,03,04,05,06,07,08,09,10,11,12,1.0,1.0,1.0*30
$GPRMC,025226.906,A,3611.130,N,11509.656,W,058.3,182.0,030120,000.0,W*6D
$GPGGA,025227.906,3611.113,N,11509.656,W,1,12,1.0,0.0,M,0.0,M,,*7C
$GPGSA,A,3,01,02,03,04,05,06,07,08,09,10,11,12,1.0,1.0,1.0*30
$GPRMC,025227.906,A,3611.113,N,11509.656,W,058.3,182.0,030120,000.0,W*6D
$GPGGA,025228.906,3611.097,N,11509.657,W,1,12,1.0,0.0,M,0.0,M,,*7F
$GPGSA,A,3,01,02,03,04,05,06,07,08,09,10,11,12,1.0,1.0,1.0*30
$GPRMC,025228.906,A,3611.097,N,11509.657,W,058.3,182.0,030120,000.0,W*6E
$GPGGA,025229.906,3611.081,N,11509.658,W,1,12,1.0,0.0,M,0.0,M,,*76
$GPGSA,A,3,01,02,03,04,05,06,07,08,09,10,11,12,1.0,1.0,1.0*30
$GPRMC,025229.906,A,3611.081,N,11509.658,W,058.3,182.0,030120,000.0,W*67
$GPGGA,025230.906,3611.065,N,11509.658,W,1,12,1.0,0.0,M,0.0,M,,*74
$GPGSA,A,3,01,02,03,04,05,06,07,08,09,10,11,12,1.0,1.0,1.0*30
$GPRMC,025230.906,A,3611.065,N,11509.658,W,058.3,182.0,030120,000.0,W*65
$GPGGA,025231.906,3611.049,N,11509.659,W,1,12,1.0,0.0,M,0.0,M,,*7A
$GPGSA,A,3,01,02,03,04,05,06,07,08,09,10,11,12,1.0,1.0,1.0*30
$GPRMC,025231.906,A,3611.049,N,11509.659,W,058.3,182.0,030120,000.0,W*6B
$GPGGA,025232.906,3611.032,N,11509.659,W,1,12,1.0,0.0,M,0.0,M,,*75
$GPGSA,A,3,01,02,03,04,05,06,07,08,09,10,11,12,1.0,1.0,1.0*30
$GPRMC,025232.906,A,3611.032,N,11509.659,W,058.3,182.0,030120,000.0,W*64
$GPGGA,025233.906,3611.016,N,11509.660,W,1,12,1.0,0.0,M,0.0,M,,*78
$GPGSA,A,3,01,02,03,04,05,06,07,08,09,10,11,12,1.0,1.0,1.0*30
$GPRMC,025233.906,A,3611.016,N,11509.660,W,058.3,182.0,030120,000.0,W*69
$GPGGA,025234.906,3611.000,N,11509.660,W,1,12,1.0,0.0,M,0.0,M,,*78
$GPGSA,A,3,01,02,03,04,05,06,07,08,09,10,11,12,1.0,1.0,1.0*30
$GPRMC,025234.906,A,3611.000,N,11509.660,W,058.3,182.0,030120,000.0,W*69
$GPGGA,025235.906,3610.984,N,11509.661,W,1,12,1.0,0.0,M,0.0,M,,*7C
$GPGSA,A,3,01,02,03,04,05,06,07,08,09,10,11,12,1.0,1.0,1.0*30
$GPRMC,025235.906,A,3610.984,N,11509.661,W,058.3,182.0,030120,000.0,W*6D
$GPGGA,025236.906,3610.968,N,11509.661,W,1,12,1.0,0.0,M,0.0,M,,*7D
$GPGSA,A,3,01,02,03,04,05,06,07,08,09,10,11,12,1.0,1.0,1.0*30
$GPRMC,025236.906,A,3610.968,N,11509.661,W,058.3,182.0,030120,000.0,W*6C
$GPGGA,025237.906,3610.952,N,11509.662,W,1,12,1.0,0.0,M,0.0,M,,*76
$GPGSA,A,3,01,02,03,04,05,06,07,08,09,10,11,12,1.0,1.0,1.0*30
$GPRMC,025237.906,A,3610.952,N,11509.662,W,058.3,182.0,030120,000.0,W*67
$GPGGA,025238.906,3610.935,N,11509.663,W,1,12,1.0,0.0,M,0.0,M,,*79
$GPGSA,A,3,01,02,03,04,05,06,07,08,09,10,11,12,1.0,1.0,1.0*30
$GPRMC,025238.906,A,3610.935,N,11509.663,W,058.3,182.0,030120,000.0,W*68
$GPGGA,025239.906,3610.919,N,11509.663,W,1,12,1.0,0.0,M,0.0,M,,*76
$GPGSA,A,3,01,02,03,04,05,06,07,08,09,10,11,12,1.0,1.0,1.0*30
$GPRMC,025239.906,A,3610.919,N,11509.663,W,058.3,182.0,030120,000.0,W*67
$GPGGA,025240.906,3610.903,N,11509.664,W,1,12,1.0,0.0,M,0.0,M,,*74
$GPGSA,A,3,01,02,03,04,05,06,07,08,09,10,11,12,1.0,1.0,1.0*30
$GPRMC,025240.906,A,3610.903,N,11509.664,W,058.3,182.0,030120,000.0,W*65
$GPGGA,025241.906,3610.887,N,11509.664,W,1,12,1.0,0.0,M,0.0,M,,*78
$GPGSA,A,3,01,02,03,04,05,06,07,08,09,10,11,12,1.0,1.0,1.0*30
$GPRMC,025241.906,A,3610.887,N,11509.664,W,058.3,182.0,030120,000.0,W*69
$GPGGA,025242.906,3610.871,N,11509.665,W,1,12,1.0,0.0,M,0.0,M,,*73
$GPGSA,A,3,01,02,03,04,05,06,07,08,09,10,11,12,1.0,1.0,1.0*30
$GPRMC,025242.906,A,3610.871,N,11509.665,W,058.3,182.0,030120,000.0,W*62
$GPGGA,025243.906,3610.855,N,11509.665,W,1,12,1.0,0.0,M,0.0,M,,*74
$GPGSA,A,3,01,02,03,04,05,06,07,08,09,10,11,12,1.0,1.0,1.0*30
$GPRMC,025243.906,A,3610.855,N,11509.665,W,058.3,088.8,030120,000.0,W*66
$GPGGA,025244.906,3610.855,N,11509.645,W,1,12,1.0,0.0,M,0.0,M,,*71
$GPGSA,A,3,01,02,03,04,05,06,07,08,09,10,11,12,1.0,1.0,1.0*30
$GPRMC,025244.906,A,3610.855,N,11509.645,W,058.3,088.8,030120,000.0,W*63
$GPGGA,025245.906,3610.855,N,11509.625,W,1,12,1.0,0.0,M,0.0,M,,*76
$GPGSA,A,3,01,02,03,04,05,06,07,08,09,10,11,12,1.0,1.0,1.0*30
$GPRMC,025245.906,A,3610.855,N,11509.625,W,058.3,088.8,030120,000.0,W*64
$GPGGA,025246.906,3610.856,N,11509.605,W,1,12,1.0,0.0,M,0.0,M,,*74
$GPGSA,A,3,01,02,03,04,05,06,07,08,09,10,11,12,1.0,1.0,1.0*30
$GPRMC,025246.906,A,3610.856,N,11509.605,W,058.3,088.8,030120,000.0,W*66
$GPGGA,025247.906,3610.856,N,11509.585,W,1,12,1.0,0.0,M,0.0,M,,*7E
$GPGSA,A,3,01,02,03,04,05,06,07,08,09,10,11,12,1.0,1.0,1.0*30
$GPRMC,025247.906,A,3610.856,N,11509.585,W,058.3,088.8,030120,000.0,W*6C
$GPGGA,025248.906,3610.857,N,11509.565,W,1,12,1.0,0.0,M,0.0,M,,*7E
$GPGSA,A,3,01,02,03,04,05,06,07,08,09,10,11,12,1.0,1.0,1.0*30
$GPRMC,025248.906,A,3610.857,N,11509.565,W,058.3,088.8,030120,000.0,W*6C
$GPGGA,025249.906,3610.857,N,11509.545,W,1,12,1.0,0.0,M,0.0,M,,*7D
$GPGSA,A,3,01,02,03,04,05,06,07,08,09,10,11,12,1.0,1.0,1.0*30
$GPRMC,025249.906,A,3610.857,N,11509.545,W,058.3,088.8,030120,000.0,W*6F
$GPGGA,025250.906,3610.857,N,11509.525,W,1,12,1.0,0.0,M,0.0,M,,*73
$GPGSA,A,3,01,02,03,04,05,06,07,08,09,10,11,12,1.0,1.0,1.0*30
$GPRMC,025250.906,A,3610.857,N,11509.525,W,058.3,088.8,030120,000.0,W*61
$GPGGA,025251.906,3610.858,N,11509.505,W,1,12,1.0,0.0,M,0.0,M,,*7F
$GPGSA,A,3,01,02,03,04,05,06,07,08,09,10,11,12,1.0,1.0,1.0*30
$GPRMC,025251.906,A,3610.858,N,11509.505,W,058.3,088.8,030120,000.0,W*6D
$GPGGA,025252.906,3610.858,N,11509.485,W,1,12,1.0,0.0,M,0.0,M,,*75
$GPGSA,A,3,01,02,03,04,05,06,07,08,09,10,11,12,1.0,1.0,1.0*30
$GPRMC,025252.906,A,3610.858,N,11509.485,W,058.3,088.8,030120,000.0,W*67
$GPGGA,025253.906,3610.859,N,11509.465,W,1,12,1.0,0.0,M,0.0,M,,*7B
$GPGSA,A,3,01,02,03,04,05,06,07,08,09,10,11,12,1.0,1.0,1.0*30
$GPRMC,025253.906,A,3610.859,N,11509.465,W,058.3,088.8,030120,000.0,W*69
$GPGGA,025254.906,3610.859,N,11509.445,W,1,12,1.0,0.0,M,0.0,M,,*7E
$GPGSA,A,3,01,02,03,04,05,06,07,08,09,10,11,12,1.0,1.0,1.0*30
$GPRMC,025254.906,A,3610.859,N,11509.445,W,058.3,088.8,030120,000.0,W*6C
$GPGGA,025255.906,3610.859,N,11509.425,W,1,12,1.0,0.0,M,0.0,M,,*79
$GPGSA,A,3,01,02,03,04,05,06,07,08,09,10,11,12,1.0,1.0,1.0*30
$GPRMC,025255.906,A,3610.859,N,11509.425,W,058.3,088.8,030120,000.0,W*6B
$GPGGA,025256.906,3610.860,N,11509.405,W,1,12,1.0,0.0,M,0.0,M,,*72
$GPGSA,A,3,01,02,03,04,05,06,07,08,09,10,11,12,1.0,1.0,1.0*30
$GPRMC,025256.906,A,3610.860,N,11509.405,W,058.3,088.8,030120,000.0,W*60
$GPGGA,025257.906,3610.860,N,11509.385,W,1,12,1.0,0.0,M,0.0,M,,*7C
$GPGSA,A,3,01,02,03,04,05,06,07,08,09,10,11,12,1.0,1.0,1.0*30
$GPRMC,025257.906,A,3610.860,N,11509.385,W,058.3,088.8,030120,000.0,W*6E
$GPGGA,025258.906,3610.861,N,11509.365,W,1,12,1.0,0.0,M,0.0,M,,*7C
$GPGSA,A,3,01,02,03,04,05,06,07,08,09,10,11,12,1.0,1.0,1.0*30
$GPRMC,025258.906,A,3610.861,N,11509.365,W,058.3,088.8,030120,000.0,W*6E
$GPGGA,025259.906,3610.861,N,11509.345,W,1,12,1.0,0.0,M,0.0,M,,*7F
$GPGSA,A,3,01,02,03,04,05,06,07,08,09,10,11,12,1.0,1.0,1.0*30
$GPRMC,025259.906,A,3610.861,N,11509.345,W,058.3,088.8,030120,000.0,W*6D
$GPGGA,025300.906,3610.861,N,11509.325,W,1,12,1.0,0.0,M,0.0,M,,*74
$GPGSA,A,3,01,02,03,04,05,06,07,08,09,10,11,12,1.0,1.0,1.0*30
$GPRMC,025300.906,A,3610.861,N,11509.325,W,058.3,088.8,030120,000.0,W*66
$GPGGA,025301.906,3610.862,N,11509.305,W,1,12,1.0,0.0,M,0.0,M,,*74
$GPGSA,A,3,01,02,03,04,05,06,07,08,09,10,11,12,1.0,1.0,1.0*30
$GPRMC,025301.906,A,3610.862,N,11509.305,W,058.3,088.8,030120,000.0,W*66
$GPGGA,025302.906,3610.862,N,11509.284,W,1,12,1.0,0.0,M,0.0,M,,*7F
$GPGSA,A,3,01,02,03,04,05,06,07,08,09,10,11,12,1.0,1.0,1.0*30
$GPRMC,025302.906,A,3610.862,N,11509.284,W,058.3,088.8,030120,000.0,W*6D
$GPGGA,025303.906,3610.863,N,11509.264,W,1,12,1.0,0.0,M,0.0,M,,*71
$GPGSA,A,3,01,02,03,04,05,06,07,08,09,10,11,12,1.0,1.0,1.0*30
$GPRMC,025303.906,A,3610.863,N,11509.264,W,058.3,088.8,030120,000.0,W*63
$GPGGA,025304.906,3610.863,N,11509.244,W,1,12,1.0,0.0,M,0.0,M,,*74
$GPGSA,A,3,01,02,03,04,05,06,07,08,09,10,11,12,1.0,1.0,1.0*30
$GPRMC,025304.906,A,3610.863,N,11509.244,W,058.3,088.8,030120,000.0,W*66
$GPGGA,025305.906,3610.863,N,11509.224,W,1,12,1.0,0.0,M,0.0,M,,*73
$GPGSA,A,3,01,02,03,04,05,06,07,08,09,10,11,12,1.0,1.0,1.0*30
$GPRMC,025305.906,A,3610.863,N,11509.224,W,058.3,088.8,030120,000.0,W*61
$GPGGA,025306.906,3610.864,N,11509.204,W,1,12,1.0,0.0,M,0.0,M,,*75
$GPGSA,A,3,01,02,03,04,05,06,07,08,09,10,11,12,1.0,1.0,1.0*30
$GPRMC,025306.906,A,3610.864,N,11509.204,W,058.3,088.8,030120,000.0,W*67
$GPGGA,025307.906,3610.864,N,11509.184,W,1,12,1.0,0.0,M,0.0,M,,*7F
$GPGSA,A,3,01,02,03,04,05,06,07,08,09,10,11,12,1.0,1.0,1.0*30
$GPRMC,025307.906,A,3610.864,N,11509.184,W,058.3,088.8,030120,000.0,W*6D
$GPGGA,025308.906,3610.865,N,11509.164,W,1,12,1.0,0.0,M,0.0,M,,*7F
$GPGSA,A,3,01,02,03,04,05,06,07,08,09,10,11,12,1.0,1.0,1.0*30
$GPRMC,025308.906,A,3610.865,N,11509.164,W,058.3,088.8,030120,000.0,W*6D
$GPGGA,025309.906,3610.865,N,11509.144,W,1,12,1.0,0.0,M,0.0,M,,*7C
$GPGSA,A,3,01,02,03,04,05,06,07,08,09,10,11,12,1.0,1.0,1.0*30
$GPRMC,025309.906,A,3610.865,N,11509.144,W,058.3,088.8,030120,000.0,W*6E
$GPGGA,025310.906,3610.866,N,11509.124,W,1,12,1.0,0.0,M,0.0,M,,*71
$GPGSA,A,3,01,02,03,04,05,06,07,08,09,10,11,12,1.0,1.0,1.0*30
$GPRMC,025310.906,A,3610.866,N,11509.124,W,058.3,088.8,030120,000.0,W*63
$GPGGA,025311.906,3610.866,N,11509.104,W,1,12,1.0,0.0,M,0.0,M,,*72
$GPGSA,A,3,01,02,03,04,05,06,07,08,09,10,11,12,1.0,1.0,1.0*30
$GPRMC,025311.906,A,3610.866,N,11509.104,W,058.3,088.8,030120,000.0,W*60
$GPGGA,025312.906,3610.866,N,11509.084,W,1,12,1.0,0.0,M,0.0,M,,*78
$GPGSA,A,3,01,02,03,04,05,06,07,08,09,10,11,12,1.0,1.0,1.0*30
$GPRMC,025312.906,A,3610.866,N,11509.084,W,058.3,088.8,030120,000.0,W*6A
$GPGGA,025313.906,3610.867,N,11509.064,W,1,12,1.0,0.0,M,0.0,M,,*76
$GPGSA,A,3,01,02,03,04,05,06,07,08,09,10,11,12,1.0,1.0,1.0*30
$GPRMC,025313.906,A,3610.867,N,11509.064,W,058.3,088.8,030120,000.0,W*64
$GPGGA,025314.906,3610.867,N,11509.044,W,1,12,1.0,0.0,M,0.0,M,,*73
$GPGSA,A,3,01,02,03,04,05,06,07,08,09,10,11,12,1.0,1.0,1.0*30
$GPRMC,025314.906,A,3610.867,N,11509.044,W,058.3,088.8,030120,000.0,W*61
$GPGGA,025315.906,3610.868,N,11509.024,W,1,12,1.0,0.0,M,0.0,M,,*7B
$GPGSA,A,3,01,02,03,04,05,06,07,08,09,10,11,12,1.0,1.0,1.0*30
$GPRMC,025315.906,A,3610.868,N,11509.024,W,058.3,088.8,030120,000.0,W*69
$GPGGA,025316.906,3610.868,N,11509.004,W,1,12,1.0,0.0,M,0.0,M,,*7A
$GPGSA,A,3,01,02,03,04,05,06,07,08,09,10,11,12,1.0,1.0,1.0*30
$GPRMC,025316.906,A,3610.868,N,11509.004,W,058.3,088.8,030120,000.0,W*68
$GPGGA,025317.906,3610.868,N,11508.984,W,1,12,1.0,0.0,M,0.0,M,,*7B
$GPGSA,A,3,01,02,03,04,05,06,07,08,09,10,11,12,1.0,1.0,1.0*30
$GPRMC,025317.906,A,3610.868,N,11508.984,W,058.3,088.8,030120,000.0,W*69
$GPGGA,025318.906,3610.869,N,11508.964,W,1,12,1.0,0.0,M,0.0,M,,*7B
$GPGSA,A,3,01,02,03,04,05,06,07,08,09,10,11,12,1.0,1.0,1.0*30
$GPRMC,025318.906,A,3610.869,N,11508.964,W,058.3,088.8,030120,000.0,W*69
$GPGGA,025319.906,3610.869,N,11508.944,W,1,12,1.0,0.0,M,0.0,M,,*78
$GPGSA,A,3,01,02,03,04,05,06,07,08,09,10,11,12,1.0,1.0,1.0*30
$GPRMC,025319.906,A,3610.869,N,11508.944,W,058.3,088.8,030120,000.0,W*6A
$GPGGA,025320.906,3610.870,N,11508.924,W,1,12,1.0,0.0,M,0.0,M,,*7C
$GPGSA,A,3,01,02,03,04,05,06,07,08,09,10,11,12,1.0,1.0,1.0*30
$GPRMC,025320.906,A,3610.870,N,11508.924,W,058.3,088.8,030120,000.0,W*6E
$GPGGA,025321.906,3610.870,N,11508.904,W,1,12,1.0,0.0,M,0.0,M,,*7F
$GPGSA,A,3,01,02,03,04,05,06,07,08,09,10,11,12,1.0,1.0,1.0*30
$GPRMC,025321.906,A,3610.870,N,11508.904,W,058.3,088.8,030120,000.0,W*6D
$GPGGA,025322.906,3610.870,N,11508.883,W,1,12,1.0,0.0,M,0.0,M,,*72
$GPGSA,A,3,01,02,03,04,05,06,07,08,09,10,11,12,1.0,1.0,1.0*30
$GPRMC,025322.906,A,3610.870,N,11508.883,W,058.3,088.8,030120,000.0,W*60
$GPGGA,025323.906,3610.871,N,11508.863,W,1,12,1.0,0.0,M,0.0,M,,*7C
$GPGSA,A,3,01,02,03,04,05,06,07,08,09,10,11,12,1.0,1.0,1.0*30
$GPRMC,025323.906,A,3610.871,N,11508.863,W,058.3,088.8,030120,000.0,W*6E
$GPGGA,025324.906,3610.871,N,11508.843,W,1,12,1.0,0.0,M,0.0,M,,*79
$GPGSA,A,3,01,02,03,04,05,06,07,08,09,10,11,12,1.0,1.0,1.0*30
$GPRMC,025324.906,A,3610.871,N,11508.843,W,058.3,088.8,030120,000.0,W*6B
$GPGGA,025325.906,3610.872,N,11508.823,W,1,12,1.0,0.0,M,0.0,M,,*7D
$GPGSA,A,3,01,02,03,04,05,06,07,08,09,10,11,12,1.0,1.0,1.0*30
$GPRMC,025325.906,A,3610.872,N,11508.823,W,058.3,088.8,030120,000.0,W*6F
$GPGGA,025326.906,3610.872,N,11508.803,W,1,12,1.0,0.0,M,0.0,M,,*7C
$GPGSA,A,3,01,02,03,04,05,06,07,08,09,10,11,12,1.0,1.0,1.0*30
$GPRMC,025326.906,A,3610.872,N,11508.803,W,058.3,088.8,030120,000.0,W*6E
$GPGGA,025327.906,3610.872,N,11508.783,W,1,12,1.0,0.0,M,0.0,M,,*7A
$GPGSA,A,3,01,02,03,04,05,06,07,08,09,10,11,12,1.0,1.0,1.0*30
$GPRMC,025327.906,A,3610.872,N,11508.783,W,058.3,088.8,030120,000.0,W*68
$GPGGA,025328.906,3610.873,N,11508.763,W,1,12,1.0,0.0,M,0.0,M,,*7A
$GPGSA,A,3,01,02,03,04,05,06,07,08,09,10,11,12,1.0,1.0,1.0*30
$GPRMC,025328.906,A,3610.873,N,11508.763,W,058.3,088.8,030120,000.0,W*68
$GPGGA,025329.906,3610.873,N,11508.743,W,1,12,1.0,0.0,M,0.0,M,,*79
$GPGSA,A,3,01,02,03,04,05,06,07,08,09,10,11,12,1.0,1.0,1.0*30
$GPRMC,025329.906,A,3610.873,N,11508.743,W,058.3,088.8,030120,000.0,W*6B
$GPGGA,025330.906,3610.874,N,11508.723,W,1,12,1.0,0.0,M,0.0,M,,*70
$GPGSA,A,3,01,02,03,04,05,06,07,08,09,10,11,12,1.0,1.0,1.0*30
$GPRMC,025330.906,A,3610.874,N,11508.723,W,058.3,088.8,030120,000.0,W*62
$GPGGA,025331.906,3610.874,N,11508.703,W,1,12,1.0,0.0,M,0.0,M,,*73
$GPGSA,A,3,01,02,03,04,05,06,07,08,09,10,11,12,1.0,1.0,1.0*30
$GPRMC,025331.906,A,3610.874,N,11508.703,W,058.3,088.8,030120,000.0,W*61
$GPGGA,025332.906,3610.875,N,11508.683,W,1,12,1.0,0.0,M,0.0,M,,*78
$GPGSA,A,3,01,02,03,04,05,06,07,08,09,10,11,12,1.0,1.0,1.0*30
$GPRMC,025332.906,A,3610.875,N,11508.683,W,058.3,088.8,030120,000.0,W*6A
$GPGGA,025333.906,3610.875,N,11508.663,W,1,12,1.0,0.0,M,0.0,M,,*77
$GPGSA,A,3,01,02,03,04,05,06,07,08,09,10,11,12,1.0,1.0,1.0*30
$GPRMC,025333.906,A,3610.875,N,11508.663,W,058.3,088.8,030120,000.0,W*65
$GPGGA,025334.906,3610.875,N,11508.643,W,1,12,1.0,0.0,M,0.0,M,,*72
$GPGSA,A,3,01,02,03,04,05,06,07,08,09,10,11,12,1.0,1.0,1.0*30
$GPRMC,025334.906,A,3610.875,N,11508.643,W,058.3,088.8,030120,000.0,W*60
$GPGGA,025335.906,3610.876,N,11508.623,W,1,12,1.0,0.0,M,0.0,M,,*76
$GPGSA,A,3,01,02,03,04,05,06,07,08,09,10,11,12,1.0,1.0,1.0*30
$GPRMC,025335.906,A,3610.876,N,11508.623,W,058.3,088.8,030120,000.0,W*64
$GPGGA,025336.906,3610.876,N,11508.603,W,1,12,1.0,0.0,M,0.0,M,,*77
$GPGSA,A,3,01,02,03,04,05,06,07,08,09,10,11,12,1.0,1.0,1.0*30
$GPRMC,025336.906,A,3610.876,N,11508.603,W,058.3,088.8,030120,000.0,W*65
$GPGGA,025337.906,3610.877,N,11508.583,W,1,12,1.0,0.0,M,0.0,M,,*7C
$GPGSA,A,3,01,02,03,04,05,06,07,08,09,10,11,12,1.0,1.0,1.0*30
$GPRMC,025337.906,A,3610.877,N,11508.583,W,058.3,088.8,030120,000.0,W*6E
$GPGGA,025338.906,3610.877,N,11508.563,W,1,12,1.0,0.0,M,0.0,M,,*7D
$GPGSA,A,3,01,02,03,04,05,06,07,08,09,10,11,12,1.0,1.0,1.0*30
$GPRMC,025338.906,A,3610.877,N,11508.563,W,058.3,088.8,030120,000.0,W*6F
$GPGGA,025339.906,3610.877,N,11508.543,W,1,12,1.0,0.0,M,0.0,M,,*7E
$GPGSA,A,3,01,02,03,04,05,06,07,08,09,10,11,12,1.0,1.0,1.0*30
$GPRMC,025339.906,A,3610.877,N,11508.543,W,058.3,088.8,030120,000.0,W*6C
$GPGGA,025340.906,3610.878,N,11508.523,W,1,12,1.0,0.0,M,0.0,M,,*79
$GPGSA,A,3,01,02,03,04,05,06,07,08,09,10,11,12,1.0,1.0,1.0*30
$GPRMC,025340.906,A,3610.878,N,11508.523,W,058.3,088.8,030120,000.0,W*6B
$GPGGA,025341.906,3610.878,N,11508.503,W,1,12,1.0,0.0,M,0.0,M,,*7A
$GPGSA,A,3,01,02,03,04,05,06,07,08,09,10,11,12,1.0,1.0,1.0*30
$GPRMC,025341.906,A,3610.878,N,11508.503,W,058.3,088.8,030120,000.0,W*68
$GPGGA,025342.906,3610.879,N,11508.483,W,1,12,1.0,0.0,M,0.0,M,,*71
$GPGSA,A,3,01,02,03,04,05,06,07,08,09,10,11,12,1.0,1.0,1.0*30
$GPRMC,025342.906,A,3610.879,N,11508.483,W,058.3,088.8,030120,000.0,W*63
$GPGGA,025343.906,3610.879,N,11508.462,W,1,12,1.0,0.0,M,0.0,M,,*7F
$GPGSA,A,3,01,02,03,04,05,06,07,08,09,10,11,12,1.0,1.0,1.0*30
$GPRMC,025343.906,A,3610.879,N,11508.462,W,058.3,088.8,030120,000.0,W*6D
$GPGGA,025344.906,3610.879,N,11508.442,W,1,12,1.0,0.0,M,0.0,M,,*7A
$GPGSA,A,3,01,02,03,04,05,06,07,08,09,10,11,12,1.0,1.0,1.0*30
$GPRMC,025344.906,A,3610.879,N,11508.442,W,058.3,099.6,030120,000.0,W*66
$GPGGA,025345.906,3610.876,N,11508.423,W,1,12,1.0,0.0,M,0.0,M,,*73
$GPGSA,A,3,01,02,03,04,05,06,07,08,09,10,11,12,1.0,1.0,1.0*30
$GPRMC,025345.906,A,3610.876,N,11508.423,W,058.3,099.6,030120,000.0,W*6F
$GPGGA,025346.906,3610.873,N,11508.403,W,1,12,1.0,0.0,M,0.0,M,,*77
$GPGSA,A,3,01,02,03,04,05,06,07,08,09,10,11,12,1.0,1.0,1.0*30
$GPRMC,025346.906,A,3610.873,N,11508.403,W,058.3,032.9,030120,000.0,W*65
$GPGGA,025347.906,3610.887,N,11508.394,W,1,12,1.0,0.0,M,0.0,M,,*74
$GPGSA,A,3,01,02,03,04,05,06,07,08,09,10,11,12,1.0,1.0,1.0*30
$GPRMC,025347.906,A,3610.887,N,11508.394,W,058.3,032.9,030120,000.0,W*66
$GPGGA,025348.906,3610.901,N,11508.385,W,1,12,1.0,0.0,M,0.0,M,,*74
$GPGSA,A,3,01,02,03,04,05,06,07,08,09,10,11,12,1.0,1.0,1.0*30
$GPRMC,025348.906,A,3610.901,N,11508.385,W,058.3,032.9,030120,000.0,W*66
$GPGGA,025349.906,3610.916,N,11508.375,W,1,12,1.0,0.0,M,0.0,M,,*7C
$GPGSA,A,3,01,02,03,04,05,06,07,08,09,10,11,12,1.0,1.0,1.0*30
$GPRMC,025349.906,A,3610.916,N,11508.375,W,058.3,032.9,030120,000.0,W*6E
$GPGGA,025350.906,3610.930,N,11508.366,W,1,12,1.0,0.0,M,0.0,M,,*72
$GPGSA,A,3,01,02,03,04,05,06,07,08,09,10,11,12,1.0,1.0,1.0*30
$GPRMC,025350.906,A,3610.930,N,11508.366,W,058.3,032.9,030120,000.0,W*60
$GPGGA,025351.906,3610.944,N,11508.357,W,1,12,1.0,0.0,M,0.0,M,,*72
$GPGSA,A,3,01,02,03,04,05,06,07,08,09,10,11,12,1.0,1.0,1.0*30
$GPRMC,025351.906,A,3610.944,N,11508.357,W,058.3,032.9,030120,000.0,W*60
$GPGGA,025352.906,3610.959,N,11508.347,W,1,12,1.0,0.0,M,0.0,M,,*7C
$GPGSA,A,3,01,02,03,04,05,06,07,08,09,10,11,12,1.0,1.0,1.0*30
$GPRMC,025352.906,A,3610.959,N,11508.347,W,058.3,032.9,030120,000.0,W*6E
$GPGGA,025353.906,3610.973,N,11508.338,W,1,12,1.0,0.0,M,0.0,M,,*7D
$GPGSA,A,3,01,02,03,04,05,06,07,08,09,10,11,12,1.0,1.0,1.0*30
$GPRMC,025353.906,A,3610.973,N,11508.338,W,058.3,032.9,030120,000.0,W*6F
$GPGGA,025354.906,3610.987,N,11508.329,W,1,12,1.0,0.0,M,0.0,M,,*71
$GPGSA,A,3,01,02,03,04,05,06,07,08,09,10,11,12,1.0,1.0,1.0*30
$GPRMC,025354.906,A,3610.987,N,11508.329,W,058.3,032.9,030120,000.0,W*63
$GPGGA,025355.906,3611.002,N,11508.319,W,1,12,1.0,0.0,M,0.0,M,,*76
$GPGSA,A,3,01,02,03,04,05,06,07,08,09,10,11,12,1.0,1.0,1.0*30
$GPRMC,025355.906,A,3611.002,N,11508.319,W,058.3,032.9,030120,000.0,W*64
$GPGGA,025356.906,3611.016,N,11508.310,W,1,12,1.0,0.0,M,0.0,M,,*79
$GPGSA,A,3,01,02,03,04,05,06,07,08,09,10,11,12,1.0,1.0,1.0*30
$GPRMC,025356.906,A,3611.016,N,11508.310,W,058.3,032.9,030120,000.0,W*6B
$GPGGA,025357.906,3611.030,N,11508.301,W,1,12,1.0,0.0,M,0.0,M,,*7C
$GPGSA,A,3,01,02,03,04,05,06,07,08,09,10,11,12,1.0,1.0,1.0*30
$GPRMC,025357.906,A,3611.030,N,11508.301,W,058.3,032.9,030120,000.0,W*6E
$GPGGA,025358.906,3611.045,N,11508.291,W,1,12,1.0,0.0,M,0.0,M,,*79
$GPGSA,A,3,01,02,03,04,05,06,07,08,09,10,11,12,1.0,1.0,1.0*30
$GPRMC,025358.906,A,3611.045,N,11508.291,W,058.3,032.9,030120,000.0,W*6B
$GPGGA,025359.906,3611.059,N,11508.282,W,1,12,1.0,0.0,M,0.0,M,,*77
$GPGSA,A,3,01,02,03,04,05,06,07,08,09,10,11,12,1.0,1.0,1.0*30
$GPRMC,025359.906,A,3611.059,N,11508.282,W,058.3,032.9,030120,000.0,W*65
$GPGGA,025400.906,3611.074,N,11508.273,W,1,12,1.0,0.0,M,0.0,M,,*7D
$GPGSA,A,3,01,02,03,04,05,06,07,08,09,10,11,12,1.0,1.0,1.0*30
$GPRMC,025400.906,A,3611.074,N,11508.273,W,058.3,032.9,030120,000.0,W*6F
$GPGGA,025401.906,3611.088,N,11508.264,W,1,12,1.0,0.0,M,0.0,M,,*79
$GPGSA,A,3,01,02,03,04,05,06,07,08,09,10,11,12,1.0,1.0,1.0*30
$GPRMC,025401.906,A,3611.088,N,11508.264,W,058.3,032.9,030120,000.0,W*6B
$GPGGA,025402.906,3611.102,N,11508.254,W,1,12,1.0,0.0,M,0.0,M,,*7A
$GPGSA,A,3,01,02,03,04,05,06,07,08,09,10,11,12,1.0,1.0,1.0*30
$GPRMC,025402.906,A,3611.102,N,11508.254,W,058.3,032.9,030120,000.0,W*68
$GPGGA,025403.906,3611.117,N,11508.245,W,1,12,1.0,0.0,M,0.0,M,,*7F
$GPGSA,A,3,01,02,03,04,05,06,07,08,09,10,11,12,1.0,1.0,1.0*30
$GPRMC,025403.906,A,3611.117,N,11508.245,W,058.3,032.9,030120,000.0,W*6D
$GPGGA,025404.906,3611.131,N,11508.236,W,1,12,1.0,0.0,M,0.0,M,,*78
$GPGSA,A,3,01,02,03,04,05,06,07,08,09,10,11,12,1.0,1.0,1.0*30
$GPRMC,025404.906,A,3611.131,N,11508.236,W,058.3,032.9,030120,000.0,W*6A
$GPGGA,025405.906,3611.145,N,11508.226,W,1,12,1.0,0.0,M,0.0,M,,*7B
$GPGSA,A,3,01,02,03,04,05,06,07,08,09,10,11,12,1.0,1.0,1.0*30
$GPRMC,025405.906,A,3611.145,N,11508.226,W,058.3,032.9,030120,000.0,W*69
$GPGGA,025406.906,3611.160,N,11508.217,W,1,12,1.0,0.0,M,0.0,M,,*7D
$GPGSA,A,3,01,02,03,04,05,06,07,08,09,10,11,12,1.0,1.0,1.0*30
$GPRMC,025406.906,A,3611.160,N,11508.217,W,058.3,032.9,030120,000.0,W*6F
$GPGGA,025407.906,3611.174,N,11508.208,W,1,12,1.0,0.0,M,0.0,M,,*77
$GPGSA,A,3,01,02,03,04,05,06,07,08,09,10,11,12,1.0,1.0,1.0*30
$GPRMC,025407.906,A,3611.174,N,11508.208,W,058.3,032.9,030120,000.0,W*65
$GPGGA,025408.906,3611.188,N,11508.198,W,1,12,1.0,0.0,M,0.0,M,,*71
$GPGSA,A,3,01,02,03,04,05,06,07,08,09,10,11,12,1.0,1.0,1.0*30
$GPRMC,025408.906,A,3611.188,N,11508.198,W,058.3,032.9,030120,000.0,W*63
$GPGGA,025409.906,3611.203,N,11508.189,W,1,12,1.0,0.0,M,0.0,M,,*70
$GPGSA,A,3,01,02,03,04,05,06,07,08,09,10,11,12,1.0,1.0,1.0*30
$GPRMC,025409.906,A,3611.203,N,11508.189,W,058.3,032.9,030120,000.0,W*62
$GPGGA,025410.906,3611.217,N,11508.180,W,1,12,1.0,0.0,M,0.0,M,,*74
$GPGSA,A,3,01,02,03,04,05,06,07,08,09,10,11,12,1.0,1.0,1.0*30
$GPRMC,025410.906,A,3611.217,N,11508.180,W,058.3,032.9,030120,000.0,W*66
$GPGGA,025411.906,3611.231,N,11508.171,W,1,12,1.0,0.0,M,0.0,M,,*7F
$GPGSA,A,3,01,02,03,04,05,06,07,08,09,10,11,12,1.0,1.0,1.0*30
$GPRMC,025411.906,A,3611.231,N,11508.171,W,058.3,032.9,030120,000.0,W*6D
$GPGGA,025412.906,3611.246,N,11508.161,W,1,12,1.0,0.0,M,0.0,M,,*7D
$GPGSA,A,3,01,02,03,04,05,06,07,08,09,10,11,12,1.0,1.0,1.0*30
$GPRMC,025412.906,A,3611.246,N,11508.161,W,058.3,032.9,030120,000.0,W*6F
$GPGGA,025413.906,3611.260,N,11508.152,W,1,12,1.0,0.0,M,0.0,M,,*78
$GPGSA,A,3,01,02,03,04,05,06,07,08,09,10,11,12,1.0,1.0,1.0*30
$GPRMC,025413.906,A,3611.260,N,11508.152,W,058.3,032.9,030120,000.0,W*6A
$GPGGA,025414.906,3611.274,N,11508.143,W,1,12,1.0,0.0,M,0.0,M,,*7A
$GPGSA,A,3,01,02,03,04,05,06,07,08,09,10,11,12,1.0,1.0,1.0*30
$GPRMC,025414.906,A,3611.274,N,11508.143,W,058.3,032.9,030120,000.0,W*68
$GPGGA,025415.906,3611.289,N,11508.133,W,1,12,1.0,0.0,M,0.0,M,,*7E
$GPGSA,A,3,01,02,03,04,05,06,07,08,09,10,11,12,1.0,1.0,1.0*30
$GPRMC,025415.906,A,3611.289,N,11508.133,W,058.3,032.9,030120,000.0,W*6C
$GPGGA,025416.906,3611.303,N,11508.124,W,1,12,1.0,0.0,M,0.0,M,,*78
$GPGSA,A,3,01,02,03,04,05,06,07,08,09,10,11,12,1.0,1.0,1.0*30
$GPRMC,025416.906,A,3611.303,N,11508.124,W,058.3,089.8,030120,000.0,W*6B
$GPGGA,025417.906,3611.303,N,11508.104,W,1,12,1.0,0.0,M,0.0,M,,*7B
$GPGSA,A,3,01,02,03,04,05,06,07,08,09,10,11,12,1.0,1.0,1.0*30
$GPRMC,025417.906,A,3611.303,N,11508.104,W,058.3,089.8,030120,000.0,W*68
$GPGGA,025418.906,3611.303,N,11508.084,W,1,12,1.0,0.0,M,0.0,M,,*7D
$GPGSA,A,3,01,02,03,04,05,06,07,08,09,10,11,12,1.0,1.0,1.0*30
$GPRMC,025418.906,A,3611.303,N,11508.084,W,058.3,089.8,030120,000.0,W*6E
$GPGGA,025419.906,3611.303,N,11508.064,W,1,12,1.0,0.0,M,0.0,M,,*72
$GPGSA,A,3,01,02,03,04,05,06,07,08,09,10,11,12,1.0,1.0,1.0*30
$GPRMC,025419.906,A,3611.303,N,11508.064,W,058.3,089.8,030120,000.0,W*61
$GPGGA,025420.906,3611.303,N,11508.044,W,1,12,1.0,0.0,M,0.0,M,,*7A
$GPGSA,A,3,01,02,03,04,05,06,07,08,09,10,11,12,1.0,1.0,1.0*30
$GPRMC,025420.906,A,3611.303,N,11508.044,W,058.3,089.8,030120,000.0,W*69
$GPGGA,025421.906,3611.303,N,11508.024,W,1,12,1.0,0.0,M,0.0,M,,*7D
$GPGSA,A,3,01,02,03,04,05,06,07,08,09,10,11,12,1.0,1.0,1.0*30
$GPRMC,025421.906,A,3611.303,N,11508.024,W,058.3,089.8,030120,000.0,W*6E
$GPGGA,025422.906,3611.303,N,11508.004,W,1,12,1.0,0.0,M,0.0,M,,*7C
$GPGSA,A,3,01,02,03,04,05,06,07,08,09,10,11,12,1.0,1.0,1.0*30
$GPRMC,025422.906,A,3611.303,N,11508.004,W,058.3,089.8,030120,000.0,W*6F
$GPGGA,025423.906,3611.304,N,11507.984,W,1,12,1.0,0.0,M,0.0,M,,*74
$GPGSA,A,3,01,02,03,04,05,06,07,08,09,10,11,12,1.0,1.0,1.0*30
$GPRMC,025423.906,A,3611.304,N,11507.984,W,058.3,089.8,030120,000.0,W*67
$GPGGA,025424.906,3611.304,N,11507.964,W,1,12,1.0,0.0,M,0.0,M,,*7D
$GPGSA,A,3,01,02,03,04,05,06,07,08,09,10,11,12,1.0,1.0,1.0*30
$GPRMC,025424.906,A,3611.304,N,11507.964,W,058.3,089.8,030120,000.0,W*6E
$GPGGA,025425.906,3611.304,N,11507.943,W,1,12,1.0,0.0,M,0.0,M,,*79
$GPGSA,A,3,01,02,03,04,05,06,07,08,09,10,11,12,1.0,1.0,1.0*30
$GPRMC,025425.906,A,3611.304,N,11507.943,W,058.3,089.8,030120,000.0,W*6A
$GPGGA,025426.906,3611.304,N,11507.923,W,1,12,1.0,0.0,M,0.0,M,,*7C
$GPGSA,A,3,01,02,03,04,05,06,07,08,09,10,11,12,1.0,1.0,1.0*30
$GPRMC,025426.906,A,3611.304,N,11507.923,W,058.3,089.8,030120,000.0,W*6F
$GPGGA,025427.906,3611.304,N,11507.903,W,1,12,1.0,0.0,M,0.0,M,,*7F
$GPGSA,A,3,01,02,03,04,05,06,07,08,09,10,11,12,1.0,1.0,1.0*30
$GPRMC,025427.906,A,3611.304,N,11507.903,W,058.3,089.8,030120,000.0,W*6C
$GPGGA,025428.906,3611.304,N,11507.883,W,1,12,1.0,0.0,M,0.0,M,,*79
$GPGSA,A,3,01,02,03,04,05,06,07,08,09,10,11,12,1.0,1.0,1.0*30
$GPRMC,025428.906,A,3611.304,N,11507.883,W,058.3,089.8,030120,000.0,W*6A
$GPGGA,025429.906,3611.304,N,11507.863,W,1,12,1.0,0.0,M,0.0,M,,*76
$GPGSA,A,3,01,02,03,04,05,06,07,08,09,10,11,12,1.0,1.0,1.0*30
$GPRMC,025429.906,A,3611.304,N,11507.863,W,058.3,089.8,030120,000.0,W*65
$GPGGA,025430.906,3611.304,N,11507.843,W,1,12,1.0,0.0,M,0.0,M,,*7C
$GPGSA,A,3,01,02,03,04,05,06,07,08,09,10,11,12,1.0,1.0,1.0*30
$GPRMC,025430.906,A,3611.304,N,11507.843,W,058.3,089.8,030120,000.0,W*6F
$GPGGA,025431.906,3611.304,N,11507.823,W,1,12,1.0,0.0,M,0.0,M,,*7B
$GPGSA,A,3,01,02,03,04,05,06,07,08,09,10,11,12,1.0,1.0,1.0*30
$GPRMC,025431.906,A,3611.304,N,11507.823,W,058.3,089.8,030120,000.0,W*68
$GPGGA,025432.906,3611.304,N,11507.803,W,1,12,1.0,0.0,M,0.0,M,,*7A
$GPGSA,A,3,01,02,03,04,05,06,07,08,09,10,11,12,1.0,1.0,1.0*30
$GPRMC,025432.906,A,3611.304,N,11507.803,W,058.3,089.8,030120,000.0,W*69
$GPGGA,025433.906,3611.304,N,11507.783,W,1,12,1.0,0.0,M,0.0,M,,*7C
$GPGSA,A,3,01,02,03,04,05,06,07,08,09,10,11,12,1.0,1.0,1.0*30
$GPRMC,025433.906,A,3611.304,N,11507.783,W,058.3,089.8,030120,000.0,W*6F
$GPGGA,025434.906,3611.304,N,11507.763,W,1,12,1.0,0.0,M,0.0,M,,*75
$GPGSA,A,3,01,02,03,04,05,06,07,08,09,10,11,12,1.0,1.0,1.0*30
$GPRMC,025434.906,A,3611.304,N,11507.763,W,058.3,089.8,030120,000.0,W*66
$GPGGA,025435.906,3611.304,N,11507.743,W,1,12,1.0,0.0,M,0.0,M,,*76
$GPGSA,A,3,01,02,03,04,05,06,07,08,09,10,11,12,1.0,1.0,1.0*30
$GPRMC,025435.906,A,3611.304,N,11507.743,W,058.3,089.8,030120,000.0,W*65
$GPGGA,025436.906,3611.305,N,11507.723,W,1,12,1.0,0.0,M,0.0,M,,*72
$GPGSA,A,3,01,02,03,04,05,06,07,08,09,10,11,12,1.0,1.0,1.0*30
$GPRMC,025436.906,A,3611.305,N,11507.723,W,058.3,089.8,030120,000.0,W*61
$GPGGA,025437.906,3611.305,N,11507.703,W,1,12,1.0,0.0,M,0.0,M,,*71
$GPGSA,A,3,01,02,03,04,05,06,07,08,09,10,11,12,1.0,1.0,1.0*30
$GPRMC,025437.906,A,3611.305,N,11507.703,W,058.3,089.8,030120,000.0,W*62
$GPGGA,025438.906,3611.305,N,11507.683,W,1,12,1.0,0.0,M,0.0,M,,*77
$GPGSA,A,3,01,02,03,04,05,06,07,08,09,10,11,12,1.0,1.0,1.0*30
$GPRMC,025438.906,A,3611.305,N,11507.683,W,058.3,089.8,030120,000.0,W*64
$GPGGA,025439.906,3611.305,N,11507.663,W,1,12,1.0,0.0,M,0.0,M,,*78
$GPGSA,A,3,01,02,03,04,05,06,07,08,09,10,11,12,1.0,1.0,1.0*30
$GPRMC,025439.906,A,3611.305,N,11507.663,W,058.3,089.8,030120,000.0,W*6B
$GPGGA,025440.906,3611.305,N,11507.643,W,1,12,1.0,0.0,M,0.0,M,,*74
$GPGSA,A,3,01,02,03,04,05,06,07,08,09,10,11,12,1.0,1.0,1.0*30
$GPRMC,025440.906,A,3611.305,N,11507.643,W,058.3,089.8,030120,000.0,W*67
$GPGGA,025441.906,3611.305,N,11507.623,W,1,12,1.0,0.0,M,0.0,M,,*73
$GPGSA,A,3,01,02,03,04,05,06,07,08,09,10,11,12,1.0,1.0,1.0*30
$GPRMC,025441.906,A,3611.305,N,11507.623,W,058.3,089.8,030120,000.0,W*60
$GPGGA,025442.906,3611.305,N,11507.602,W,1,12,1.0,0.0,M,0.0,M,,*73
$GPGSA,A,3,01,02,03,04,05,06,07,08,09,10,11,12,1.0,1.0,1.0*30
$GPRMC,025442.906,A,3611.305,N,11507.602,W,058.3,089.8,030120,000.0,W*60
$GPGGA,025443.906,3611.305,N,11507.582,W,1,12,1.0,0.0,M,0.0,M,,*79
$GPGSA,A,3,01,02,03,04,05,06,07,08,09,10,11,12,1.0,1.0,1.0*30
$GPRMC,025443.906,A,3611.305,N,11507.582,W,058.3,089.8,030120,000.0,W*6A
$GPGGA,025444.906,3611.305,N,11507.562,W,1,12,1.0,0.0,M,0.0,M,,*70
$GPGSA,A,3,01,02,03,04,05,06,07,08,09,10,11,12,1.0,1.0,1.0*30
$GPRMC,025444.906,A,3611.305,N,11507.562,W,058.3,089.8,030120,000.0,W*63
$GPGGA,025445.906,3611.305,N,11507.542,W,1,12,1.0,0.0,M,0.0,M,,*73
$GPGSA,A,3,01,02,03,04,05,06,07,08,09,10,11,12,1.0,1.0,1.0*30
$GPRMC,025445.906,A,3611.305,N,11507.542,W,058.3,089.8,030120,000.0,W*60
$GPGGA,025446.906,3611.305,N,11507.522,W,1,12,1.0,0.0,M,0.0,M,,*76
$GPGSA,A,3,01,02,03,04,05,06,07,08,09,10,11,12,1.0,1.0,1.0*30
$GPRMC,025446.906,A,3611.305,N,11507.522,W,058.3,089.8,030120,000.0,W*65
$GPGGA,025447.906,3611.305,N,11507.502,W,1,12,1.0,0.0,M,0.0,M,,*75
$GPGSA,A,3,01,02,03,04,05,06,07,08,09,10,11,12,1.0,1.0,1.0*30
$GPRMC,025447.906,A,3611.305,N,11507.502,W,058.3,089.8,030120,000.0,W*66
$GPGGA,025448.906,3611.306,N,11507.482,W,1,12,1.0,0.0,M,0.0,M,,*70
$GPGSA,A,3,01,02,03,04,05,06,07,08,09,10,11,12,1.0,1.0,1.0*30
$GPRMC,025448.906,A,3611.306,N,11507.482,W,058.3,089.8,030120,000.0,W*63
$GPGGA,025449.906,3611.306,N,11507.462,W,1,12,1.0,0.0,M,0.0,M,,*7F
$GPGSA,A,3,01,02,03,04,05,06,07,08,09,10,11,12,1.0,1.0,1.0*30
$GPRMC,025449.906,A,3611.306,N,11507.462,W,058.3,089.8,030120,000.0,W*6C
$GPGGA,025450.906,3611.306,N,11507.442,W,1,12,1.0,0.0,M,0.0,M,,*75
$GPGSA,A,3,01,02,03,04,05,06,07,08,09,10,11,12,1.0,1.0,1.0*30
$GPRMC,025450.906,A,3611.306,N,11507.442,W,058.3,089.8,030120,000.0,W*66
$GPGGA,025451.906,3611.306,N,11507.422,W,1,12,1.0,0.0,M,0.0,M,,*72
$GPGSA,A,3,01,02,03,04,05,06,07,08,09,10,11,12,1.0,1.0,1.0*30
$GPRMC,025451.906,A,3611.306,N,11507.422,W,058.3,089.8,030120,000.0,W*61
$GPGGA,025452.906,3611.306,N,11507.402,W,1,12,1.0,0.0,M,0.0,M,,*73
$GPGSA,A,3,01,02,03,04,05,06,07,08,09,10,11,12,1.0,1.0,1.0*30
$GPRMC,025452.906,A,3611.306,N,11507.402,W,058.3,089.8,030120,000.0,W*60
$GPGGA,025453.906,3611.306,N,11507.382,W,1,12,1.0,0.0,M,0.0,M,,*7D
$GPGSA,A,3,01,02,03,04,05,06,07,08,09,10,11,12,1.0,1.0,1.0*30
$GPRMC,025453.906,A,3611.306,N,11507.382,W,058.3,089.8,030120,000.0,W*6E
$GPGGA,025454.906,3611.306,N,11507.362,W,1,12,1.0,0.0,M,0.0,M,,*74
$GPGSA,A,3,01,02,03,04,05,06,07,08,09,10,11,12,1.0,1.0,1.0*30
$GPRMC,025454.906,A,3611.306,N,11507.362,W,058.3,089.8,030120,000.0,W*67
$GPGGA,025455.906,3611.306,N,11507.342,W,1,12,1.0,0.0,M,0.0,M,,*77
$GPGSA,A,3,01,02,03,04,05,06,07,08,09,10,11,12,1.0,1.0,1.0*30
$GPRMC,025455.906,A,3611.306,N,11507.342,W,058.3,089.8,030120,000.0,W*64
$GPGGA,025456.906,3611.306,N,11507.322,W,1,12,1.0,0.0,M,0.0,M,,*72
$GPGSA,A,3,01,02,03,04,05,06,07,08,09,10,11,12,1.0,1.0,1.0*30
$GPRMC,025456.906,A,3611.306,N,11507.322,W,058.3,089.8,030120,000.0,W*61
$GPGGA,025457.906,3611.306,N,11507.302,W,1,12,1.0,0.0,M,0.0,M,,*71
$GPGSA,A,3,01,02,03,04,05,06,07,08,09,10,11,12,1.0,1.0,1.0*30
$GPRMC,025457.906,A,3611.306,N,11507.302,W,058.3,089.8,030120,000.0,W*62
$GPGGA,025458.906,3611.306,N,11507.282,W,1,12,1.0,0.0,M,0.0,M,,*77
$GPGSA,A,3,01,02,03,04,05,06,07,08,09,10,11,12,1.0,1.0,1.0*30
$GPRMC,025458.906,A,3611.306,N,11507.282,W,058.3,089.8,030120,000.0,W*64
$GPGGA,025459.906,3611.306,N,11507.262,W,1,12,1.0,0.0,M,0.0,M,,*78
$GPGSA,A,3,01,02,03,04,05,06,07,08,09,10,11,12,1.0,1.0,1.0*30
$GPRMC,025459.906,A,3611.306,N,11507.262,W,058.3,089.8,030120,000.0,W*6B
$GPGGA,025500.906,3611.306,N,11507.241,W,1,12,1.0,0.0,M,0.0,M,,*74
$GPGSA,A,3,01,02,03,04,05,06,07,08,09,10,11,12,1.0,1.0,1.0*30
$GPRMC,025500.906,A,3611.306,N,11507.241,W,058.3,089.8,030120,000.0,W*67
$GPGGA,025501.906,3611.307,N,11507.221,W,1,12,1.0,0.0,M,0.0,M,,*72
$GPGSA,A,3,01,02,03,04,05,06,07,08,09,10,11,12,1.0,1.0,1.0*30
$GPRMC,025501.906,A,3611.307,N,11507.221,W,058.3,089.8,030120,000.0,W*61
$GPGGA,025502.906,3611.307,N,11507.201,W,1,12,1.0,0.0,M,0.0,M,,*73
$GPGSA,A,3,01,02,03,04,05,06,07,08,09,10,11,12,1.0,1.0,1.0*30
$GPRMC,025502.906,A,3611.307,N,11507.201,W,058.3,089.8,030120,000.0,W*60
$GPGGA,025503.906,3611.307,N,11507.181,W,1,12,1.0,0.0,M,0.0,M,,*79
$GPGSA,A,3,01,02,03,04,05,06,07,08,09,10,11,12,1.0,1.0,1.0*30
$GPRMC,025503.906,A,3611.307,N,11507.181,W,058.3,089.8,030120,000.0,W*6A
$GPGGA,025504.906,3611.307,N,11507.161,W,1,12,1.0,0.0,M,0.0,M,,*70
$GPGSA,A,3,01,02,03,04,05,06,07,08,09,10,11,12,1.0,1.0,1.0*30
$GPRMC,025504.906,A,3611.307,N,11507.161,W,058.3,089.8,030120,000.0,W*63
$GPGGA,025505.906,3611.307,N,11507.141,W,1,12,1.0,0.0,M,0.0,M,,*73
$GPGSA,A,3,01,02,03,04,05,06,07,08,09,10,11,12,1.0,1.0,1.0*30
$GPRMC,025505.906,A,3611.307,N,11507.141,W,058.3,089.8,030120,000.0,W*60
$GPGGA,025506.906,3611.307,N,11507.121,W,1,12,1.0,0.0,M,0.0,M,,*76
$GPGSA,A,3,01,02,03,04,05,06,07,08,09,10,11,12,1.0,1.0,1.0*30
$GPRMC,025506.906,A,3611.307,N,11507.121,W,058.3,089.8,030120,000.0,W*65
$GPGGA,025507.906,3611.307,N,11507.101,W,1,12,1.0,0.0,M,0.0,M,,*75
$GPGSA,A,3,01,02,03,04,05,06,07,08,09,10,11,12,1.0,1.0,1.0*30
$GPRMC,025507.906,A,3611.307,N,11507.101,W,058.3,089.8,030120,000.0,W*66
$GPGGA,025508.906,3611.307,N,11507.081,W,1,12,1.0,0.0,M,0.0,M,,*73
$GPGSA,A,3,01,02,03,04,05,06,07,08,09,10,11,12,1.0,1.0,1.0*30
$GPRMC,025508.906,A,3611.307,N,11507.081,W,058.3,089.8,030120,000.0,W*60
$GPGGA,025509.906,3611.307,N,11507.061,W,1,12,1.0,0.0,M,0.0,M,,*7C
$GPGSA,A,3,01,02,03,04,05,06,07,08,09,10,11,12,1.0,1.0,1.0*30
$GPRMC,025509.906,A,3611.307,N,11507.061,W,058.3,089.8,030120,000.0,W*6F
$GPGGA,025510.906,3611.307,N,11507.041,W,1,12,1.0,0.0,M,0.0,M,,*76
$GPGSA,A,3,01,02,03,04,05,06,07,08,09,10,11,12,1.0,1.0,1.0*30
$GPRMC,025510.906,A,3611.307,N,11507.041,W,058.3,089.8,030120,000.0,W*65
$GPGGA,025511.906,3611.307,N,11507.021,W,1,12,1.0,0.0,M,0.0,M,,*71
$GPGSA,A,3,01,02,03,04,05,06,07,08,09,10,11,12,1.0,1.0,1.0*30
$GPRMC,025511.906,A,3611.307,N,11507.021,W,058.3,089.8,030120,000.0,W*62
$GPGGA,025512.906,3611.307,N,11507.001,W,1,12,1.0,0.0,M,0.0,M,,*70
$GPGSA,A,3,01,02,03,04,05,06,07,08,09,10,11,12,1.0,1.0,1.0*30
$GPRMC,025512.906,A,3611.307,N,11507.001,W,058.3,089.8,030120,000.0,W*63
$GPGGA,025513.906,3611.308,N,11506.981,W,1,12,1.0,0.0,M,0.0,M,,*7E
$GPGSA,A,3,01,02,03,04,05,06,07,08,09,10,11,12,1.0,1.0,1.0*30
$GPRMC,025513.906,A,3611.308,N,11506.981,W,058.3,179.8,030120,000.0,W*63
$GPGGA,025514.906,3611.291,N,11506.981,W,1,12,1.0,0.0,M,0.0,M,,*78
$GPGSA,A,3,01,02,03,04,05,06,07,08,09,10,11,12,1.0,1.0,1.0*30
$GPRMC,025514.906,A,3611.291,N,11506.981,W,058.3,179.8,030120,000.0,W*65
$GPGGA,025515.906,3611.275,N,11506.981,W,1,12,1.0,0.0,M,0.0,M,,*73
$GPGSA,A,3,01,02,03,04,05,06,07,08,09,10,11,12,1.0,1.0,1.0*30
$GPRMC,025515.906,A,3611.275,N,11506.981,W,058.3,179.8,030120,000.0,W*6E
$GPGGA,025516.906,3611.259,N,11506.981,W,1,12,1.0,0.0,M,0.0,M,,*7E
$GPGSA,A,3,01,02,03,04,05,06,07,08,09,10,11,12,1.0,1.0,1.0*30
$GPRMC,025516.906,A,3611.259,N,11506.981,W,058.3,179.8,030120,000.0,W*63
$GPGGA,025517.906,3611.243,N,11506.980,W,1,12,1.0,0.0,M,0.0,M,,*75
$GPGSA,A,3,01,02,03,04,05,06,07,08,09,10,11,12,1.0,1.0,1.0*30
$GPRMC,025517.906,A,3611.243,N,11506.980,W,058.3,179.8,030120,000.0,W*68
$GPGGA,025518.906,3611.227,N,11506.980,W,1,12,1.0,0.0,M,0.0,M,,*78
$GPGSA,A,3,01,02,03,04,05,06,07,08,09,10,11,12,1.0,1.0,1.0*30
$GPRMC,025518.906,A,3611.227,N,11506.980,W,058.3,179.8,030120,000.0,W*65
$GPGGA,025519.906,3611.210,N,11506.980,W,1,12,1.0,0.0,M,0.0,M,,*7D
$GPGSA,A,3,01,02,03,04,05,06,07,08,09,10,11,12,1.0,1.0,1.0*30
$GPRMC,025519.906,A,3611.210,N,11506.980,W,058.3,179.8,030120,000.0,W*60
$GPGGA,025520.906,3611.194,N,11506.980,W,1,12,1.0,0.0,M,0.0,M,,*78
$GPGSA,A,3,01,02,03,04,05,06,07,08,09,10,11,12,1.0,1.0,1.0*30
$GPRMC,025520.906,A,3611.194,N,11506.980,W,058.3,179.8,030120,000.0,W*65
$GPGGA,025521.906,3611.178,N,11506.980,W,1,12,1.0,0.0,M,0.0,M,,*7B
$GPGSA,A,3,01,02,03,04,05,06,07,08,09,10,11,12,1.0,1.0,1.0*30
$GPRMC,025521.906,A,3611.178,N,11506.980,W,058.3,179.8,030120,000.0,W*66
$GPGGA,025522.906,3611.162,N,11506.980,W,1,12,1.0,0.0,M,0.0,M,,*73
$GPGSA,A,3,01,02,03,04,05,06,07,08,09,10,11,12,1.0,1.0,1.0*30
$GPRMC,025522.906,A,3611.162,N,11506.980,W,058.3,179.8,030120,000.0,W*6E
$GPGGA,025523.906,3611.146,N,11506.980,W,1,12,1.0,0.0,M,0.0,M,,*74
$GPGSA,A,3,01,02,03,04,05,06,07,08,09,10,11,12,1.0,1.0,1.0*30
$GPRMC,025523.906,A,3611.146,N,11506.980,W,058.3,179.8,030120,000.0,W*69
$GPGGA,025524.906,3611.129,N,11506.980,W,1,12,1.0,0.0,M,0.0,M,,*7A
$GPGSA,A,3,01,02,03,04,05,06,07,08,09,10,11,12,1.0,1.0,1.0*30
$GPRMC,025524.906,A,3611.129,N,11506.980,W,058.3,179.8,030120,000.0,W*67
$GPGGA,025525.906,3611.113,N,11506.980,W,1,12,1.0,0.0,M,0.0,M,,*72
$GPGSA,A,3,01,02,03,04,05,06,07,08,09,10,11,12,1.0,1.0,1.0*30
$GPRMC,025525.906,A,3611.113,N,11506.980,W,058.3,179.8,030120,000.0,W*6F
$GPGGA,025526.906,3611.097,N,11506.980,W,1,12,1.0,0.0,M,0.0,M,,*7C
$GPGSA,A,3,01,02,03,04,05,06,07,08,09,10,11,12,1.0,1.0,1.0*30
$GPRMC,025526.906,A,3611.097,N,11506.980,W,058.3,179.8,030120,000.0,W*61
$GPGGA,025527.906,3611.081,N,11506.980,W,1,12,1.0,0.0,M,0.0,M,,*7A
$GPGSA,A,3,01,02,03,04,05,06,07,08,09,10,11,12,1.0,1.0,1.0*30
$GPRMC,025527.906,A,3611.081,N,11506.980,W,058.3,179.8,030120,000.0,W*67
$GPGGA,025528.906,3611.065,N,11506.980,W,1,12,1.0,0.0,M,0.0,M,,*7F
$GPGSA,A,3,01,02,03,04,05,06,07,08,09,10,11,12,1.0,1.0,1.0*30
$GPRMC,025528.906,A,3611.065,N,11506.980,W,058.3,179.8,030120,000.0,W*62
$GPGGA,025529.906,3611.049,N,11506.980,W,1,12,1.0,0.0,M,0.0,M,,*70
$GPGSA,A,3,01,02,03,04,05,06,07,08,09,10,11,12,1.0,1.0,1.0*30
$GPRMC,025529.906,A,3611.049,N,11506.980,W,058.3,179.8,030120,000.0,W*6D
$GPGGA,025530.906,3611.032,N,11506.980,W,1,12,1.0,0.0,M,0.0,M,,*74
$GPGSA,A,3,01,02,03,04,05,06,07,08,09,10,11,12,1.0,1.0,1.0*30
$GPRMC,025530.906,A,3611.032,N,11506.980,W,058.3,179.8,030120,000.0,W*69
$GPGGA,025531.906,3611.016,N,11506.980,W,1,12,1.0,0.0,M,0.0,M,,*73
$GPGSA,A,3,01,02,03,04,05,06,07,08,09,10,11,12,1.0,1.0,1.0*30
$GPRMC,025531.906,A,3611.016,N,11506.980,W,058.3,179.8,030120,000.0,W*6E
$GPGGA,025532.906,3611.000,N,11506.980,W,1,12,1.0,0.0,M,0.0,M,,*77
$GPGSA,A,3,01,02,03,04,05,06,07,08,09,10,11,12,1.0,1.0,1.0*30
$GPRMC,025532.906,A,3611.000,N,11506.980,W,058.3,179.8,030120,000.0,W*6A
$GPGGA,025533.906,3610.984,N,11506.980,W,1,12,1.0,0.0,M,0.0,M,,*72
$GPGSA,A,3,01,02,03,04,05,06,07,08,09,10,11,12,1.0,1.0,1.0*30
$GPRMC,025533.906,A,3610.984,N,11506.980,W,058.3,179.8,030120,000.0,W*6F
$GPGGA,025534.906,3610.968,N,11506.979,W,1,12,1.0,0.0,M,0.0,M,,*71
$GPGSA,A,3,01,02,03,04,05,06,07,08,09,10,11,12,1.0,1.0,1.0*30
$GPRMC,025534.906,A,3610.968,N,11506.979,W,058.3,179.8,030120,000.0,W*6C
$GPGGA,025535.906,3610.951,N,11506.979,W,1,12,1.0,0.0,M,0.0,M,,*7A
$GPGSA,A,3,01,02,03,04,05,06,07,08,09,10,11,12,1.0,1.0,1.0*30
$GPRMC,025535.906,A,3610.951,N,11506.979,W,058.3,179.8,030120,000.0,W*67
$GPGGA,025536.906,3610.935,N,11506.979,W,1,12,1.0,0.0,M,0.0,M,,*7B
$GPGSA,A,3,01,02,03,04,05,06,07,08,09,10,11,12,1.0,1.0,1.0*30
$GPRMC,025536.906,A,3610.935,N,11506.979,W,058.3,179.8,030120,000.0,W*66
$GPGGA,025537.906,3610.919,N,11506.979,W,1,12,1.0,0.0,M,0.0,M,,*74
$GPGSA,A,3,01,02,03,04,05,06,07,08,09,10,11,12,1.0,1.0,1.0*30
$GPRMC,025537.906,A,3610.919,N,11506.979,W,058.3,179.8,030120,000.0,W*69
$GPGGA,025538.906,3610.903,N,11506.979,W,1,12,1.0,0.0,M,0.0,M,,*70
$GPGSA,A,3,01,02,03,04,05,06,07,08,09,10,11,12,1.0,1.0,1.0*30
$GPRMC,025538.906,A,3610.903,N,11506.979,W,058.3,179.8,030120,000.0,W*6D
$GPGGA,025539.906,3610.887,N,11506.979,W,1,12,1.0,0.0,M,0.0,M,,*7C
$GPGSA,A,3,01,02,03,04,05,06,07,08,09,10,11,12,1.0,1.0,1.0*30
$GPRMC,025539.906,A,3610.887,N,11506.979,W,058.3,179.8,030120,000.0,W*61
$GPGGA,025540.906,3610.870,N,11506.979,W,1,12,1.0,0.0,M,0.0,M,,*7A
$GPGSA,A,3,01,02,03,04,05,06,07,08,09,10,11,12,1.0,1.0,1.0*30
$GPRMC,025540.906,A,3610.870,N,11506.979,W,058.3,179.8,030120,000.0,W*67
$GPGGA,025541.906,3610.854,N,11506.979,W,1,12,1.0,0.0,M,0.0,M,,*7D
$GPGSA,A,3,01,02,03,04,05,06,07,08,09,10,11,12,1.0,1.0,1.0*30
$GPRMC,025541.906,A,3610.854,N,11506.979,W,058.3,179.8,030120,000.0,W*60
$GPGGA,025542.906,3610.838,N,11506.979,W,1,12,1.0,0.0,M,0.0,M,,*74
$GPGSA,A,3,01,02,03,04,05,06,07,08,09,10,11,12,1.0,1.0,1.0*30
$GPRMC,025542.906,A,3610.838,N,11506.979,W,058.3,179.8,030120,000.0,W*69
$GPGGA,025543.906,3610.822,N,11506.979,W,1,12,1.0,0.0,M,0.0,M,,*7E
$GPGSA,A,3,01,02,03,04,05,06,07,08,09,10,11,12,1.0,1.0,1.0*30
$GPRMC,025543.906,A,3610.822,N,11506.979,W,058.3,179.8,030120,000.0,W*63
$GPGGA,025544.906,3610.806,N,11506.979,W,1,12,1.0,0.0,M,0.0,M,,*7F
$GPGSA,A,3,01,02,03,04,05,06,07,08,09,10,11,12,1.0,1.0,1.0*30
$GPRMC,025544.906,A,3610.806,N,11506.979,W,058.3,179.8,030120,000.0,W*62
$GPGGA,025545.906,3610.790,N,11506.979,W,1,12,1.0,0.0,M,0.0,M,,*7E
$GPGSA,A,3,01,02,03,04,05,06,07,08,09,10,11,12,1.0,1.0,1.0*30
$GPRMC,025545.906,A,3610.790,N,11506.979,W,058.3,179.8,030120,000.0,W*63
$GPGGA,025546.906,3610.773,N,11506.979,W,1,12,1.0,0.0,M,0.0,M,,*70
$GPGSA,A,3,01,02,03,04,05,06,07,08,09,10,11,12,1.0,1.0,1.0*30
$GPRMC,025546.906,A,3610.773,N,11506.979,W,058.3,179.8,030120,000.0,W*6D
$GPGGA,025547.906,3610.757,N,11506.979,W,1,12,1.0,0.0,M,0.0,M,,*77
$GPGSA,A,3,01,02,03,04,05,06,07,08,09,10,11,12,1.0,1.0,1.0*30
$GPRMC,025547.906,A,3610.757,N,11506.979,W,058.3,179.8,030120,000.0,W*6A
$GPGGA,025548.906,3610.741,N,11506.979,W,1,12,1.0,0.0,M,0.0,M,,*7F
$GPGSA,A,3,01,02,03,04,05,06,07,08,09,10,11,12,1.0,1.0,1.0*30
$GPRMC,025548.906,A,3610.741,N,11506.979,W,058.3,179.8,030120,000.0,W*62
$GPGGA,025549.906,3610.725,N,11506.979,W,1,12,1.0,0.0,M,0.0,M,,*7C
$GPGSA,A,3,01,02,03,04,05,06,07,08,09,10,11,12,1.0,1.0,1.0*30
$GPRMC,025549.906,A,3610.725,N,11506.979,W,058.3,179.8,030120,000.0,W*61
$GPGGA,025550.906,3610.709,N,11506.978,W,1,12,1.0,0.0,M,0.0,M,,*7B
$GPGSA,A,3,01,02,03,04,05,06,07,08,09,10,11,12,1.0,1.0,1.0*30
$GPRMC,025550.906,A,3610.709,N,11506.978,W,058.3,179.8,030120,000.0,W*66
$GPGGA,025551.906,3610.692,N,11506.978,W,1,12,1.0,0.0,M,0.0,M,,*79
$GPGSA,A,3,01,02,03,04,05,06,07,08,09,10,11,12,1.0,1.0,1.0*30
$GPRMC,025551.906,A,3610.692,N,11506.978,W,058.3,179.8,030120,000.0,W*64
$GPGGA,025552.906,3610.676,N,11506.978,W,1,12,1.0,0.0,M,0.0,M,,*70
$GPGSA,A,3,01,02,03,04,05,06,07,08,09,10,11,12,1.0,1.0,1.0*30
$GPRMC,025552.906,A,3610.676,N,11506.978,W,058.3,179.8,030120,000.0,W*6D
$GPGGA,025553.906,3610.660,N,11506.978,W,1,12,1.0,0.0,M,0.0,M,,*76
$GPGSA,A,3,01,02,03,04,05,06,07,08,09,10,11,12,1.0,1.0,1.0*30
$GPRMC,025553.906,A,3610.660,N,11506.978,W,058.3,179.8,030120,000.0,W*6B
$GPGGA,025554.906,3610.644,N,11506.978,W,1,12,1.0,0.0,M,0.0,M,,*77
$GPGSA,A,3,01,02,03,04,05,06,07,08,09,10,11,12,1.0,1.0,1.0*30
$GPRMC,025554.906,A,3610.644,N,11506.978,W,058.3,179.8,030120,000.0,W*6A
$GPGGA,025555.906,3610.628,N,11506.978,W,1,12,1.0,0.0,M,0.0,M,,*7C
$GPGSA,A,3,01,02,03,04,05,06,07,08,09,10,11,12,1.0,1.0,1.0*30
$GPRMC,025555.906,A,3610.628,N,11506.978,W,058.3,179.8,030120,000.0,W*61
$GPGGA,025556.906,3610.611,N,11506.978,W,1,12,1.0,0.0,M,0.0,M,,*75
$GPGSA,A,3,01,02,03,04,05,06,07,08,09,10,11,12,1.0,1.0,1.0*30
$GPRMC,025556.906,A,3610.611,N,11506.978,W,058.3,179.8,030120,000.0,W*68
