$GPGGA,115444.564,4808.254,N,01132.999,E,1,12,1.0,0.0,M,0.0,M,,*67
$GPGSA,A,3,01,02,03,04,05,06,07,08,09,10,11,12,1.0,1.0,1.0*30
$GPRMC,115444.564,A,4808.254,N,01132.999,E,086.9,092.7,130819,000.0,W*7A
$GPGGA,115445.564,4808.252,N,01133.035,E,1,12,1.0,0.0,M,0.0,M,,*6E
$GPGSA,A,3,01,02,03,04,05,06,07,08,09,10,11,12,1.0,1.0,1.0*30
$GPRMC,115445.564,A,4808.252,N,01133.035,E,099.0,090.0,130819,000.0,W*71
$GPGGA,115446.564,4808.252,N,01133.076,E,1,12,1.0,0.0,M,0.0,M,,*6A
$GPGSA,A,3,01,02,03,04,05,06,07,08,09,10,11,12,1.0,1.0,1.0*30
$GPRMC,115446.564,A,4808.252,N,01133.076,E,136.2,090.0,130819,000.0,W*73
$GPGGA,115447.564,4808.252,N,01133.133,E,1,12,1.0,0.0,M,0.0,M,,*6B
$GPGSA,A,3,01,02,03,04,05,06,07,08,09,10,11,12,1.0,1.0,1.0*30
$GPRMC,115447.564,A,4808.252,N,01133.133,E,222.9,091.1,130819,000.0,W*7F
$GPGGA,115448.564,4808.251,N,01133.225,E,1,12,1.0,0.0,M,0.0,M,,*63
$GPGSA,A,3,01,02,03,04,05,06,07,08,09,10,11,12,1.0,1.0,1.0*30
$GPRMC,115448.564,A,4808.251,N,01133.225,E,092.9,090.0,130819,000.0,W*7E
$GPGGA,115449.564,4808.251,N,01133.264,E,1,12,1.0,0.0,M,0.0,M,,*67
$GPGSA,A,3,01,02,03,04,05,06,07,08,09,10,11,12,1.0,1.0,1.0*30
$GPRMC,115449.564,A,4808.251,N,01133.264,E,086.7,090.0,130819,000.0,W*71
$GPGGA,115450.564,4808.251,N,01133.300,E,1,12,1.0,0.0,M,0.0,M,,*6C
$GPGSA,A,3,01,02,03,04,05,06,07,08,09,10,11,12,1.0,1.0,1.0*30
$GPRMC,115450.564,A,4808.251,N,01133.300,E,111.6,092.1,130819,000.0,W*77
$GPGGA,115451.564,4808.249,N,01133.346,E,1,12,1.0,0.0,M,0.0,M,,*66
$GPGSA,A,3,01,02,03,04,05,06,07,08,09,10,11,12,1.0,1.0,1.0*30
$GPRMC,115451.564,A,4808.249,N,01133.346,E,099.2,092.4,130819,000.0,W*7D
$GPGGA,115452.564,4808.247,N,01133.388,E,1,12,1.0,0.0,M,0.0,M,,*69
$GPGSA,A,3,01,02,03,04,05,06,07,08,09,10,11,12,1.0,1.0,1.0*30
$GPRMC,115452.564,A,4808.247,N,01133.388,E,229.1,091.0,130819,000.0,W*7F
$GPGGA,115453.564,4808.246,N,01133.483,E,1,12,1.0,0.0,M,0.0,M,,*65
$GPGSA,A,3,01,02,03,04,05,06,07,08,09,10,11,12,1.0,1.0,1.0*30
$GPRMC,115453.564,A,4808.246,N,01133.483,E,148.7,091.6,130819,000.0,W*77
$GPGGA,115454.564,4808.244,N,01133.545,E,1,12,1.0,0.0,M,0.0,M,,*6B
$GPGSA,A,3,01,02,03,04,05,06,07,08,09,10,11,12,1.0,1.0,1.0*30
$GPRMC,115454.564,A,4808.244,N,01133.545,E,099.0,090.0,130819,000.0,W*74
$GPGGA,115455.564,4808.244,N,01133.586,E,1,12,1.0,0.0,M,0.0,M,,*65
$GPGSA,A,3,01,02,03,04,05,06,07,08,09,10,11,12,1.0,1.0,1.0*30
$GPRMC,115455.564,A,4808.244,N,01133.586,E,093.1,092.6,130819,000.0,W*75
$GPGGA,115456.564,4808.242,N,01133.624,E,1,12,1.0,0.0,M,0.0,M,,*6B
$GPGSA,A,3,01,02,03,04,05,06,07,08,09,10,11,12,1.0,1.0,1.0*30
$GPRMC,115456.564,A,4808.242,N,01133.624,E,105.2,090.0,130819,000.0,W*72
$GPGGA,115457.564,4808.242,N,01133.668,E,1,12,1.0,0.0,M,0.0,M,,*62
$GPGSA,A,3,01,02,03,04,05,06,07,08,09,10,11,12,1.0,1.0,1.0*30
$GPRMC,115457.564,A,4808.242,N,01133.668,E,384.0,088.8,130819,000.0,W*73
$GPGGA,115458.564,4808.246,N,01133.828,E,1,12,1.0,0.0,M,0.0,M,,*63
$GPGSA,A,3,01,02,03,04,05,06,07,08,09,10,11,12,1.0,1.0,1.0*30
$GPRMC,115458.564,A,4808.246,N,01133.828,E,130.0,090.0,130819,000.0,W*7E
$GPGGA,115459.564,4808.246,N,01133.882,E,1,12,1.0,0.0,M,0.0,M,,*62
$GPGSA,A,3,01,02,03,04,05,06,07,08,09,10,11,12,1.0,1.0,1.0*30
$GPRMC,115459.564,A,4808.246,N,01133.882,E,080.7,092.9,130819,000.0,W*79
$GPGGA,115500.564,4808.244,N,01133.915,E,1,12,1.0,0.0,M,0.0,M,,*62
$GPGSA,A,3,01,02,03,04,05,06,07,08,09,10,11,12,1.0,1.0,1.0*30
$GPRMC,115500.564,A,4808.244,N,01133.915,E,144.5,014.6,130819,000.0,W*73
$GPGGA,115501.564,4808.283,N,01133.926,E,1,12,1.0,0.0,M,0.0,M,,*68
$GPGSA,A,3,01,02,03,04,05,06,07,08,09,10,11,12,1.0,1.0,1.0*30
$GPRMC,115501.564,A,4808.283,N,01133.926,E,106.9,014.8,130819,000.0,W*7D
$GPGGA,115502.564,4808.313,N,01133.933,E,1,12,1.0,0.0,M,0.0,M,,*67
$GPGSA,A,3,01,02,03,04,05,06,07,08,09,10,11,12,1.0,1.0,1.0*30
$GPRMC,115502.564,A,4808.313,N,01133.933,E,068.1,000.0,130819,000.0,W*7E
$GPGGA,115503.564,4808.331,N,01133.933,E,1,12,1.0,0.0,M,0.0,M,,*66
$GPGSA,A,3,01,02,03,04,05,06,07,08,09,10,11,12,1.0,1.0,1.0*30
$GPRMC,115503.564,A,4808.331,N,01133.933,E,068.1,000.0,130819,000.0,W*7F
$GPGGA,115504.564,4808.350,N,01133.933,E,1,12,1.0,0.0,M,0.0,M,,*66
$GPGSA,A,3,01,02,03,04,05,06,07,08,09,10,11,12,1.0,1.0,1.0*30
$GPRMC,115504.564,A,4808.350,N,01133.933,E,122.1,041.3,130819,000.0,W*76
$GPGGA,115505.564,4808.380,N,01133.959,E,1,12,1.0,0.0,M,0.0,M,,*66
$GPGSA,A,3,01,02,03,04,05,06,07,08,09,10,11,12,1.0,1.0,1.0*30
$GPRMC,115505.564,A,4808.380,N,01133.959,E,148.8,056.2,130819,000.0,W*74
$GPGGA,115506.564,4808.409,N,01134.003,E,1,12,1.0,0.0,M,0.0,M,,*62
$GPGSA,A,3,01,02,03,04,05,06,07,08,09,10,11,12,1.0,1.0,1.0*30
$GPRMC,115506.564,A,4808.409,N,01134.003,E,121.9,073.4,130819,000.0,W*7F
$GPGGA,115507.564,4808.423,N,01134.049,E,1,12,1.0,0.0,M,0.0,M,,*65
$GPGSA,A,3,01,02,03,04,05,06,07,08,09,10,11,12,1.0,1.0,1.0*30
$GPRMC,115507.564,A,4808.423,N,01134.049,E,076.1,071.5,130819,000.0,W*70
$GPGGA,115508.564,4808.432,N,01134.078,E,1,12,1.0,0.0,M,0.0,M,,*68
$GPGSA,A,3,01,02,03,04,05,06,07,08,09,10,11,12,1.0,1.0,1.0*30
$GPRMC,115508.564,A,4808.432,N,01134.078,E,094.1,142.3,130819,000.0,W*76
$GPGGA,115509.564,4808.409,N,01134.096,E,1,12,1.0,0.0,M,0.0,M,,*61
$GPGSA,A,3,01,02,03,04,05,06,07,08,09,10,11,12,1.0,1.0,1.0*30
$GPRMC,115509.564,A,4808.409,N,01134.096,E,101.4,098.3,130819,000.0,W*71
$GPGGA,115510.564,4808.403,N,01134.137,E,1,12,1.0,0.0,M,0.0,M,,*69
$GPGSA,A,3,01,02,03,04,05,06,07,08,09,10,11,12,1.0,1.0,1.0*30
$GPRMC,115510.564,A,4808.403,N,01134.137,E,057.1,098.5,130819,000.0,W*78
$GPGGA,115511.564,4808.399,N,01134.160,E,1,12,1.0,0.0,M,0.0,M,,*6E
$GPGSA,A,3,01,02,03,04,05,06,07,08,09,10,11,12,1.0,1.0,1.0*30
$GPRMC,115511.564,A,4808.399,N,01134.160,E,048.9,102.6,130819,000.0,W*78
$GPGGA,115512.564,4808.395,N,01134.179,E,1,12,1.0,0.0,M,0.0,M,,*69
$GPGSA,A,3,01,02,03,04,05,06,07,08,09,10,11,12,1.0,1.0,1.0*30
$GPRMC,115512.564,A,4808.395,N,01134.179,E,047.1,106.0,130819,000.0,W*7A
$GPGGA,115513.564,4808.390,N,01134.197,E,1,12,1.0,0.0,M,0.0,M,,*6D
$GPGSA,A,3,01,02,03,04,05,06,07,08,09,10,11,12,1.0,1.0,1.0*30
$GPRMC,115513.564,A,4808.390,N,01134.197,E,058.7,102.6,130819,000.0,W*74
$GPGGA,115514.564,4808.385,N,01134.220,E,1,12,1.0,0.0,M,0.0,M,,*61
$GPGSA,A,3,01,02,03,04,05,06,07,08,09,10,11,12,1.0,1.0,1.0*30
$GPRMC,115514.564,A,4808.385,N,01134.220,E,057.1,098.5,130819,000.0,W*70
$GPGGA,115515.564,4808.381,N,01134.244,E,1,12,1.0,0.0,M,0.0,M,,*66
$GPGSA,A,3,01,02,03,04,05,06,07,08,09,10,11,12,1.0,1.0,1.0*30
$GPRMC,115515.564,A,4808.381,N,01134.244,E,060.1,098.0,130819,000.0,W*76
$GPGGA,115516.564,4808.378,N,01134.268,E,1,12,1.0,0.0,M,0.0,M,,*6D
$GPGSA,A,3,01,02,03,04,05,06,07,08,09,10,11,12,1.0,1.0,1.0*30
$GPRMC,115516.564,A,4808.378,N,01134.268,E,077.6,106.2,130819,000.0,W*78
$GPGGA,115517.564,4808.369,N,01134.298,E,1,12,1.0,0.0,M,0.0,M,,*63
$GPGSA,A,3,01,02,03,04,05,06,07,08,09,10,11,12,1.0,1.0,1.0*30
$GPRMC,115517.564,A,4808.369,N,01134.298,E,077.6,106.2,130819,000.0,W*76
$GPGGA,115518.564,4808.361,N,01134.327,E,1,12,1.0,0.0,M,0.0,M,,*61
$GPGSA,A,3,01,02,03,04,05,06,07,08,09,10,11,12,1.0,1.0,1.0*30
$GPRMC,115518.564,A,4808.361,N,01134.327,E,059.5,109.5,130819,000.0,W*73
$GPGGA,115519.564,4808.353,N,01134.349,E,1,12,1.0,0.0,M,0.0,M,,*69
$GPGSA,A,3,01,02,03,04,05,06,07,08,09,10,11,12,1.0,1.0,1.0*30
$GPRMC,115519.564,A,4808.353,N,01134.349,E,044.3,107.2,130819,000.0,W*78
$GPGGA,115520.564,4808.348,N,01134.366,E,1,12,1.0,0.0,M,0.0,M,,*64
$GPGSA,A,3,01,02,03,04,05,06,07,08,09,10,11,12,1.0,1.0,1.0*30
$GPRMC,115520.564,A,4808.348,N,01134.366,E,055.4,108.5,130819,000.0,W*7A
$GPGGA,115521.564,4808.341,N,01134.387,E,1,12,1.0,0.0,M,0.0,M,,*63
$GPGSA,A,3,01,02,03,04,05,06,07,08,09,10,11,12,1.0,1.0,1.0*30
$GPRMC,115521.564,A,4808.341,N,01134.387,E,111.5,088.9,130819,000.0,W*78
$GPGGA,115522.564,4808.342,N,01134.433,E,1,12,1.0,0.0,M,0.0,M,,*6B
$GPGSA,A,3,01,02,03,04,05,06,07,08,09,10,11,12,1.0,1.0,1.0*30
$GPRMC,115522.564,A,4808.342,N,01134.433,E,049.9,085.2,130819,000.0,W*76
$GPGGA,115523.564,4808.343,N,01134.454,E,1,12,1.0,0.0,M,0.0,M,,*6A
$GPGSA,A,3,01,02,03,04,05,06,07,08,09,10,11,12,1.0,1.0,1.0*30
$GPRMC,115523.564,A,4808.343,N,01134.454,E,046.8,095.1,130819,000.0,W*7B
$GPGGA,115524.564,4808.342,N,01134.473,E,1,12,1.0,0.0,M,0.0,M,,*69
$GPGSA,A,3,01,02,03,04,05,06,07,08,09,10,11,12,1.0,1.0,1.0*30
$GPRMC,115524.564,A,4808.342,N,01134.473,E,062.2,093.8,130819,000.0,W*7B
$GPGGA,115525.564,4808.340,N,01134.499,E,1,12,1.0,0.0,M,0.0,M,,*6E
$GPGSA,A,3,01,02,03,04,05,06,07,08,09,10,11,12,1.0,1.0,1.0*30
$GPRMC,115525.564,A,4808.340,N,01134.499,E,056.5,096.4,130819,000.0,W*75
$GPGGA,115526.564,4808.337,N,01134.522,E,1,12,1.0,0.0,M,0.0,M,,*6C
$GPGSA,A,3,01,02,03,04,05,06,07,08,09,10,11,12,1.0,1.0,1.0*30
$GPRMC,115526.564,A,4808.337,N,01134.522,E,032.9,127.4,130819,000.0,W*72
$GPGGA,115527.564,4808.331,N,01134.531,E,1,12,1.0,0.0,M,0.0,M,,*69
$GPGSA,A,3,01,02,03,04,05,06,07,08,09,10,11,12,1.0,1.0,1.0*30
$GPRMC,115527.564,A,4808.331,N,01134.531,E,049.9,190.6,130819,000.0,W*75
$GPGGA,115528.564,4808.317,N,01134.528,E,1,12,1.0,0.0,M,0.0,M,,*6A
$GPGSA,A,3,01,02,03,04,05,06,07,08,09,10,11,12,1.0,1.0,1.0*30
$GPRMC,115528.564,A,4808.317,N,01134.528,E,047.3,196.6,130819,000.0,W*74
$GPGGA,115529.564,4808.304,N,01134.524,E,1,12,1.0,0.0,M,0.0,M,,*65
$GPGSA,A,3,01,02,03,04,05,06,07,08,09,10,11,12,1.0,1.0,1.0*30
$GPRMC,115529.564,A,4808.304,N,01134.524,E,040.4,186.6,130819,000.0,W*7A
$GPGGA,115530.564,4808.293,N,01134.523,E,1,12,1.0,0.0,M,0.0,M,,*65
$GPGSA,A,3,01,02,03,04,05,06,07,08,09,10,11,12,1.0,1.0,1.0*30
$GPRMC,115530.564,A,4808.293,N,01134.523,E,061.7,205.2,130819,000.0,W*76
$GPGGA,115531.564,4808.276,N,01134.515,E,1,12,1.0,0.0,M,0.0,M,,*6A
$GPGSA,A,3,01,02,03,04,05,06,07,08,09,10,11,12,1.0,1.0,1.0*30
$GPRMC,115531.564,A,4808.276,N,01134.515,E,060.1,197.4,130819,000.0,W*70
$GPGGA,115532.564,4808.260,N,01134.510,E,1,12,1.0,0.0,M,0.0,M,,*6B
$GPGSA,A,3,01,02,03,04,05,06,07,08,09,10,11,12,1.0,1.0,1.0*30
$GPRMC,115532.564,A,4808.260,N,01134.510,E,099.9,203.4,130819,000.0,W*71
$GPGGA,115533.564,4808.233,N,01134.499,E,1,12,1.0,0.0,M,0.0,M,,*6C
$GPGSA,A,3,01,02,03,04,05,06,07,08,09,10,11,12,1.0,1.0,1.0*30
$GPRMC,115533.564,A,4808.233,N,01134.499,E,097.1,105.5,130819,000.0,W*74
$GPGGA,115534.564,4808.223,N,01134.536,E,1,12,1.0,0.0,M,0.0,M,,*6E
$GPGSA,A,3,01,02,03,04,05,06,07,08,09,10,11,12,1.0,1.0,1.0*30
$GPRMC,115534.564,A,4808.223,N,01134.536,E,045.7,109.8,130819,000.0,W*7E
$GPGGA,115535.564,4808.217,N,01134.553,E,1,12,1.0,0.0,M,0.0,M,,*6B
$GPGSA,A,3,01,02,03,04,05,06,07,08,09,10,11,12,1.0,1.0,1.0*30
$GPRMC,115535.564,A,4808.217,N,01134.553,E,064.6,101.4,130819,000.0,W*7D
$GPGGA,115536.564,4808.212,N,01134.578,E,1,12,1.0,0.0,M,0.0,M,,*64
$GPGSA,A,3,01,02,03,04,05,06,07,08,09,10,11,12,1.0,1.0,1.0*30
$GPRMC,115536.564,A,4808.212,N,01134.578,E,078.1,114.1,130819,000.0,W*79
$GPGGA,115537.564,4808.200,N,01134.605,E,1,12,1.0,0.0,M,0.0,M,,*6F
$GPGSA,A,3,01,02,03,04,05,06,07,08,09,10,11,12,1.0,1.0,1.0*30
$GPRMC,115537.564,A,4808.200,N,01134.605,E,030.6,123.8,130819,000.0,W*74
$GPGGA,115538.564,4808.194,N,01134.614,E,1,12,1.0,0.0,M,0.0,M,,*6E
$GPGSA,A,3,01,02,03,04,05,06,07,08,09,10,11,12,1.0,1.0,1.0*30
$GPRMC,115538.564,A,4808.194,N,01134.614,E,050.4,164.4,130819,000.0,W*7E
$GPGGA,115539.564,4808.180,N,01134.618,E,1,12,1.0,0.0,M,0.0,M,,*66
$GPGSA,A,3,01,02,03,04,05,06,07,08,09,10,11,12,1.0,1.0,1.0*30
$GPRMC,115539.564,A,4808.180,N,01134.618,E,044.3,197.7,130819,000.0,W*7B
$GPGGA,115540.564,4808.168,N,01134.614,E,1,12,1.0,0.0,M,0.0,M,,*62
$GPGSA,A,3,01,02,03,04,05,06,07,08,09,10,11,12,1.0,1.0,1.0*30
$GPRMC,115540.564,A,4808.168,N,01134.614,E,054.8,121.7,130819,000.0,W*78
$GPGGA,115541.564,4808.158,N,01134.631,E,1,12,1.0,0.0,M,0.0,M,,*67
$GPGSA,A,3,01,02,03,04,05,06,07,08,09,10,11,12,1.0,1.0,1.0*30
$GPRMC,115541.564,A,4808.158,N,01134.631,E,038.3,099.5,130819,000.0,W*7C
$GPGGA,115542.564,4808.155,N,01134.647,E,1,12,1.0,0.0,M,0.0,M,,*68
$GPGSA,A,3,01,02,03,04,05,06,07,08,09,10,11,12,1.0,1.0,1.0*30
$GPRMC,115542.564,A,4808.155,N,01134.647,E,053.4,165.2,130819,000.0,W*7C
$GPGGA,115543.564,4808.141,N,01134.651,E,1,12,1.0,0.0,M,0.0,M,,*6B
$GPGSA,A,3,01,02,03,04,05,06,07,08,09,10,11,12,1.0,1.0,1.0*30
$GPRMC,115543.564,A,4808.141,N,01134.651,E,058.4,223.0,130819,000.0,W*77
$GPGGA,115544.564,4808.127,N,01134.638,E,1,12,1.0,0.0,M,0.0,M,,*63
$GPGSA,A,3,01,02,03,04,05,06,07,08,09,10,11,12,1.0,1.0,1.0*30
$GPRMC,115544.564,A,4808.127,N,01134.638,E,058.2,252.5,130819,000.0,W*7A
$GPGGA,115545.564,4808.120,N,01134.616,E,1,12,1.0,0.0,M,0.0,M,,*69
$GPGSA,A,3,01,02,03,04,05,06,07,08,09,10,11,12,1.0,1.0,1.0*30
$GPRMC,115545.564,A,4808.120,N,01134.616,E,087.2,189.1,130819,000.0,W*73
$GPGGA,115546.564,4808.096,N,01134.612,E,1,12,1.0,0.0,M,0.0,M,,*62
$GPGSA,A,3,01,02,03,04,05,06,07,08,09,10,11,12,1.0,1.0,1.0*30
$GPRMC,115546.564,A,4808.096,N,01134.612,E,124.2,087.1,130819,000.0,W*7F
$GPGGA,115547.564,4808.099,N,01134.663,E,1,12,1.0,0.0,M,0.0,M,,*6A
$GPGSA,A,3,01,02,03,04,05,06,07,08,09,10,11,12,1.0,1.0,1.0*30
$GPRMC,115547.564,A,4808.099,N,01134.663,E,086.7,091.4,130819,000.0,W*79
$GPGGA,115548.564,4808.098,N,01134.699,E,1,12,1.0,0.0,M,0.0,M,,*61
$GPGSA,A,3,01,02,03,04,05,06,07,08,09,10,11,12,1.0,1.0,1.0*30
$GPRMC,115548.564,A,4808.098,N,01134.699,E,075.9,082.1,130819,000.0,W*77
$GPGGA,115549.564,4808.102,N,01134.730,E,1,12,1.0,0.0,M,0.0,M,,*60
$GPGSA,A,3,01,02,03,04,05,06,07,08,09,10,11,12,1.0,1.0,1.0*30
$GPRMC,115549.564,A,4808.102,N,01134.730,E,066.8,080.9,130819,000.0,W*7F
$GPGGA,115550.564,4808.106,N,01134.757,E,1,12,1.0,0.0,M,0.0,M,,*6D
$GPGSA,A,3,01,02,03,04,05,06,07,08,09,10,11,12,1.0,1.0,1.0*30
$GPRMC,115550.564,A,4808.106,N,01134.757,E,086.3,099.9,130819,000.0,W*7F
$GPGGA,115551.564,4808.100,N,01134.792,E,1,12,1.0,0.0,M,0.0,M,,*63
$GPGSA,A,3,01,02,03,04,05,06,07,08,09,10,11,12,1.0,1.0,1.0*30
$GPRMC,115551.564,A,4808.100,N,01134.792,E,066.5,218.2,130819,000.0,W*79
$GPGGA,115552.564,4808.084,N,01134.779,E,1,12,1.0,0.0,M,0.0,M,,*68
$GPGSA,A,3,01,02,03,04,05,06,07,08,09,10,11,12,1.0,1.0,1.0*30
$GPRMC,115552.564,A,4808.084,N,01134.779,E,113.0,096.4,130819,000.0,W*76
$GPGGA,115553.564,4808.079,N,01134.826,E,1,12,1.0,0.0,M,0.0,M,,*6E
$GPGSA,A,3,01,02,03,04,05,06,07,08,09,10,11,12,1.0,1.0,1.0*30
$GPRMC,115553.564,A,4808.079,N,01134.826,E,155.9,085.4,130819,000.0,W*79
$GPGGA,115554.564,4808.084,N,01134.890,E,1,12,1.0,0.0,M,0.0,M,,*66
$GPGSA,A,3,01,02,03,04,05,06,07,08,09,10,11,12,1.0,1.0,1.0*30
$GPRMC,115554.564,A,4808.084,N,01134.890,E,142.9,078.0,130819,000.0,W*71
$GPGGA,115555.564,4808.096,N,01134.947,E,1,12,1.0,0.0,M,0.0,M,,*6F
$GPGSA,A,3,01,02,03,04,05,06,07,08,09,10,11,12,1.0,1.0,1.0*30
$GPRMC,115555.564,A,4808.096,N,01134.947,E,115.2,063.8,130819,000.0,W*73
$GPGGA,115556.564,4808.115,N,01134.985,E,1,12,1.0,0.0,M,0.0,M,,*68
$GPGSA,A,3,01,02,03,04,05,06,07,08,09,10,11,12,1.0,1.0,1.0*30
$GPRMC,115556.564,A,4808.115,N,01134.985,E,115.2,063.8,130819,000.0,W*74
