$GPGGA,074655.580,3730.933,N,12706.153,E,1,12,1.0,0.0,M,0.0,M,,*6D
$GPGSA,A,3,01,02,03,04,05,06,07,08,09,10,11,12,1.0,1.0,1.0*30
$GPRMC,074655.580,A,3730.933,N,12706.153,E,038.9,248.3,270819,000.0,W*73
$GPGGA,074656.580,3730.928,N,12706.141,E,1,12,1.0,0.0,M,0.0,M,,*67
$GPGSA,A,3,01,02,03,04,05,06,07,08,09,10,11,12,1.0,1.0,1.0*30
$GPRMC,074656.580,A,3730.928,N,12706.141,E,038.9,248.3,270819,000.0,W*79
$GPGGA,074657.580,3730.923,N,12706.128,E,1,12,1.0,0.0,M,0.0,M,,*62
$GPGSA,A,3,01,02,03,04,05,06,07,08,09,10,11,12,1.0,1.0,1.0*30
$GPRMC,074657.580,A,3730.923,N,12706.128,E,038.9,248.3,270819,000.0,W*7C
$GPGGA,074658.580,3730.918,N,12706.116,E,1,12,1.0,0.0,M,0.0,M,,*68
$GPGSA,A,3,01,02,03,04,05,06,07,08,09,10,11,12,1.0,1.0,1.0*30
$GPRMC,074658.580,A,3730.918,N,12706.116,E,038.9,248.3,270819,000.0,W*76
$GPGGA,074659.580,3730.914,N,12706.104,E,1,12,1.0,0.0,M,0.0,M,,*66
$GPGSA,A,3,01,02,03,04,05,06,07,08,09,10,11,12,1.0,1.0,1.0*30
$GPRMC,074659.580,A,3730.914,N,12706.104,E,038.9,160.5,270819,000.0,W*77
$GPGGA,074700.580,3730.903,N,12706.108,E,1,12,1.0,0.0,M,0.0,M,,*61
$GPGSA,A,3,01,02,03,04,05,06,07,08,09,10,11,12,1.0,1.0,1.0*30
$GPRMC,074700.580,A,3730.903,N,12706.108,E,038.9,160.5,270819,000.0,W*70
$GPGGA,074701.580,3730.893,N,12706.111,E,1,12,1.0,0.0,M,0.0,M,,*60
$GPGSA,A,3,01,02,03,04,05,06,07,08,09,10,11,12,1.0,1.0,1.0*30
$GPRMC,074701.580,A,3730.893,N,12706.111,E,038.9,160.5,270819,000.0,W*71
$GPGGA,074702.580,3730.882,N,12706.115,E,1,12,1.0,0.0,M,0.0,M,,*67
$GPGSA,A,3,01,02,03,04,05,06,07,08,09,10,11,12,1.0,1.0,1.0*30
$GPRMC,074702.580,A,3730.882,N,12706.115,E,038.9,160.5,270819,000.0,W*76
$GPGGA,074703.580,3730.872,N,12706.119,E,1,12,1.0,0.0,M,0.0,M,,*65
$GPGSA,A,3,01,02,03,04,05,06,07,08,09,10,11,12,1.0,1.0,1.0*30
$GPRMC,074703.580,A,3730.872,N,12706.119,E,038.9,160.5,270819,000.0,W*74
$GPGGA,074704.580,3730.862,N,12706.123,E,1,12,1.0,0.0,M,0.0,M,,*6A
$GPGSA,A,3,01,02,03,04,05,06,07,08,09,10,11,12,1.0,1.0,1.0*30
$GPRMC,074704.580,A,3730.862,N,12706.123,E,038.9,160.5,270819,000.0,W*7B
$GPGGA,074705.580,3730.851,N,12706.126,E,1,12,1.0,0.0,M,0.0,M,,*6E
$GPGSA,A,3,01,02,03,04,05,06,07,08,09,10,11,12,1.0,1.0,1.0*30
$GPRMC,074705.580,A,3730.851,N,12706.126,E,038.9,160.5,270819,000.0,W*7F
$GPGGA,074706.580,3730.841,N,12706.130,E,1,12,1.0,0.0,M,0.0,M,,*6B
$GPGSA,A,3,01,02,03,04,05,06,07,08,09,10,11,12,1.0,1.0,1.0*30
$GPRMC,074706.580,A,3730.841,N,12706.130,E,038.9,252.0,270819,000.0,W*7D
$GPGGA,074707.580,3730.837,N,12706.117,E,1,12,1.0,0.0,M,0.0,M,,*6E
$GPGSA,A,3,01,02,03,04,05,06,07,08,09,10,11,12,1.0,1.0,1.0*30
$GPRMC,074707.580,A,3730.837,N,12706.117,E,038.9,252.0,270819,000.0,W*78
$GPGGA,074708.580,3730.833,N,12706.105,E,1,12,1.0,0.0,M,0.0,M,,*66
$GPGSA,A,3,01,02,03,04,05,06,07,08,09,10,11,12,1.0,1.0,1.0*30
$GPRMC,074708.580,A,3730.833,N,12706.105,E,038.9,252.0,270819,000.0,W*70
$GPGGA,074709.580,3730.829,N,12706.092,E,1,12,1.0,0.0,M,0.0,M,,*63
$GPGSA,A,3,01,02,03,04,05,06,07,08,09,10,11,12,1.0,1.0,1.0*30
$GPRMC,074709.580,A,3730.829,N,12706.092,E,038.9,252.0,270819,000.0,W*75
$GPGGA,074710.580,3730.824,N,12706.079,E,1,12,1.0,0.0,M,0.0,M,,*63
$GPGSA,A,3,01,02,03,04,05,06,07,08,09,10,11,12,1.0,1.0,1.0*30
$GPRMC,074710.580,A,3730.824,N,12706.079,E,038.9,252.0,270819,000.0,W*75
$GPGGA,074711.580,3730.820,N,12706.067,E,1,12,1.0,0.0,M,0.0,M,,*69
$GPGSA,A,3,01,02,03,04,05,06,07,08,09,10,11,12,1.0,1.0,1.0*30
$GPRMC,074711.580,A,3730.820,N,12706.067,E,038.9,252.0,270819,000.0,W*7F
$GPGGA,074712.580,3730.816,N,12706.054,E,1,12,1.0,0.0,M,0.0,M,,*6F
$GPGSA,A,3,01,02,03,04,05,06,07,08,09,10,11,12,1.0,1.0,1.0*30
$GPRMC,074712.580,A,3730.816,N,12706.054,E,038.9,288.7,270819,000.0,W*79
$GPGGA,074713.580,3730.821,N,12706.042,E,1,12,1.0,0.0,M,0.0,M,,*6D
$GPGSA,A,3,01,02,03,04,05,06,07,08,09,10,11,12,1.0,1.0,1.0*30
$GPRMC,074713.580,A,3730.821,N,12706.042,E,038.9,288.7,270819,000.0,W*7B
$GPGGA,074714.580,3730.825,N,12706.029,E,1,12,1.0,0.0,M,0.0,M,,*63
$GPGSA,A,3,01,02,03,04,05,06,07,08,09,10,11,12,1.0,1.0,1.0*30
$GPRMC,074714.580,A,3730.825,N,12706.029,E,038.9,288.7,270819,000.0,W*75
$GPGGA,074715.580,3730.829,N,12706.017,E,1,12,1.0,0.0,M,0.0,M,,*63
$GPGSA,A,3,01,02,03,04,05,06,07,08,09,10,11,12,1.0,1.0,1.0*30
$GPRMC,074715.580,A,3730.829,N,12706.017,E,038.9,288.7,270819,000.0,W*75
$GPGGA,074716.580,3730.833,N,12706.004,E,1,12,1.0,0.0,M,0.0,M,,*69
$GPGSA,A,3,01,02,03,04,05,06,07,08,09,10,11,12,1.0,1.0,1.0*30
$GPRMC,074716.580,A,3730.833,N,12706.004,E,038.9,288.7,270819,000.0,W*7F
$GPGGA,074717.580,3730.837,N,12705.992,E,1,12,1.0,0.0,M,0.0,M,,*69
$GPGSA,A,3,01,02,03,04,05,06,07,08,09,10,11,12,1.0,1.0,1.0*30
$GPRMC,074717.580,A,3730.837,N,12705.992,E,038.9,320.7,270819,000.0,W*7C
$GPGGA,074718.580,3730.847,N,12705.984,E,1,12,1.0,0.0,M,0.0,M,,*66
$GPGSA,A,3,01,02,03,04,05,06,07,08,09,10,11,12,1.0,1.0,1.0*30
$GPRMC,074718.580,A,3730.847,N,12705.984,E,038.9,320.7,270819,000.0,W*73
$GPGGA,074719.580,3730.856,N,12705.977,E,1,12,1.0,0.0,M,0.0,M,,*6B
$GPGSA,A,3,01,02,03,04,05,06,07,08,09,10,11,12,1.0,1.0,1.0*30
$GPRMC,074719.580,A,3730.856,N,12705.977,E,038.9,320.7,270819,000.0,W*7E
$GPGGA,074720.580,3730.865,N,12705.969,E,1,12,1.0,0.0,M,0.0,M,,*6E
$GPGSA,A,3,01,02,03,04,05,06,07,08,09,10,11,12,1.0,1.0,1.0*30
$GPRMC,074720.580,A,3730.865,N,12705.969,E,038.9,320.7,270819,000.0,W*7B
$GPGGA,074721.580,3730.874,N,12705.962,E,1,12,1.0,0.0,M,0.0,M,,*64
$GPGSA,A,3,01,02,03,04,05,06,07,08,09,10,11,12,1.0,1.0,1.0*30
$GPRMC,074721.580,A,3730.874,N,12705.962,E,038.9,320.7,270819,000.0,W*71
$GPGGA,074722.580,3730.883,N,12705.955,E,1,12,1.0,0.0,M,0.0,M,,*6B
$GPGSA,A,3,01,02,03,04,05,06,07,08,09,10,11,12,1.0,1.0,1.0*30
$GPRMC,074722.580,A,3730.883,N,12705.955,E,038.9,320.7,270819,000.0,W*7E
$GPGGA,074723.580,3730.892,N,12705.947,E,1,12,1.0,0.0,M,0.0,M,,*69
$GPGSA,A,3,01,02,03,04,05,06,07,08,09,10,11,12,1.0,1.0,1.0*30
$GPRMC,074723.580,A,3730.892,N,12705.947,E,038.9,320.7,270819,000.0,W*7C
$GPGGA,074724.580,3730.901,N,12705.940,E,1,12,1.0,0.0,M,0.0,M,,*62
$GPGSA,A,3,01,02,03,04,05,06,07,08,09,10,11,12,1.0,1.0,1.0*30
$GPRMC,074724.580,A,3730.901,N,12705.940,E,038.9,320.7,270819,000.0,W*77
$GPGGA,074725.580,3730.910,N,12705.932,E,1,12,1.0,0.0,M,0.0,M,,*66
$GPGSA,A,3,01,02,03,04,05,06,07,08,09,10,11,12,1.0,1.0,1.0*30
$GPRMC,074725.580,A,3730.910,N,12705.932,E,038.9,320.7,270819,000.0,W*73
$GPGGA,074726.580,3730.919,N,12705.925,E,1,12,1.0,0.0,M,0.0,M,,*6A
$GPGSA,A,3,01,02,03,04,05,06,07,08,09,10,11,12,1.0,1.0,1.0*30
$GPRMC,074726.580,A,3730.919,N,12705.925,E,038.9,320.7,270819,000.0,W*7F
$GPGGA,074727.580,3730.928,N,12705.918,E,1,12,1.0,0.0,M,0.0,M,,*67
$GPGSA,A,3,01,02,03,04,05,06,07,08,09,10,11,12,1.0,1.0,1.0*30
$GPRMC,074727.580,A,3730.928,N,12705.918,E,038.9,320.7,270819,000.0,W*72
$GPGGA,074728.580,3730.937,N,12705.910,E,1,12,1.0,0.0,M,0.0,M,,*6E
$GPGSA,A,3,01,02,03,04,05,06,07,08,09,10,11,12,1.0,1.0,1.0*30
$GPRMC,074728.580,A,3730.937,N,12705.910,E,038.9,320.7,270819,000.0,W*7B
$GPGGA,074729.580,3730.946,N,12705.903,E,1,12,1.0,0.0,M,0.0,M,,*6B
$GPGSA,A,3,01,02,03,04,05,06,07,08,09,10,11,12,1.0,1.0,1.0*30
$GPRMC,074729.580,A,3730.946,N,12705.903,E,038.9,320.7,270819,000.0,W*7E
$GPGGA,074730.580,3730.955,N,12705.895,E,1,12,1.0,0.0,M,0.0,M,,*6F
$GPGSA,A,3,01,02,03,04,05,06,07,08,09,10,11,12,1.0,1.0,1.0*30
$GPRMC,074730.580,A,3730.955,N,12705.895,E,038.9,320.7,270819,000.0,W*7A
$GPGGA,074731.580,3730.964,N,12705.888,E,1,12,1.0,0.0,M,0.0,M,,*60
$GPGSA,A,3,01,02,03,04,05,06,07,08,09,10,11,12,1.0,1.0,1.0*30
$GPRMC,074731.580,A,3730.964,N,12705.888,E,038.9,320.7,270819,000.0,W*75
$GPGGA,074732.580,3730.973,N,12705.880,E,1,12,1.0,0.0,M,0.0,M,,*6D
$GPGSA,A,3,01,02,03,04,05,06,07,08,09,10,11,12,1.0,1.0,1.0*30
$GPRMC,074732.580,A,3730.973,N,12705.880,E,038.9,320.7,270819,000.0,W*78
$GPGGA,074733.580,3730.982,N,12705.873,E,1,12,1.0,0.0,M,0.0,M,,*6E
$GPGSA,A,3,01,02,03,04,05,06,07,08,09,10,11,12,1.0,1.0,1.0*30
$GPRMC,074733.580,A,3730.982,N,12705.873,E,038.9,327.5,270819,000.0,W*7E
$GPGGA,074734.580,3730.992,N,12705.867,E,1,12,1.0,0.0,M,0.0,M,,*6D
$GPGSA,A,3,01,02,03,04,05,06,07,08,09,10,11,12,1.0,1.0,1.0*30
$GPRMC,074734.580,A,3730.992,N,12705.867,E,038.9,327.5,270819,000.0,W*7D
$GPGGA,074735.580,3731.001,N,12705.861,E,1,12,1.0,0.0,M,0.0,M,,*68
$GPGSA,A,3,01,02,03,04,05,06,07,08,09,10,11,12,1.0,1.0,1.0*30
$GPRMC,074735.580,A,3731.001,N,12705.861,E,038.9,327.5,270819,000.0,W*78
$GPGGA,074736.580,3731.011,N,12705.855,E,1,12,1.0,0.0,M,0.0,M,,*6D
$GPGSA,A,3,01,02,03,04,05,06,07,08,09,10,11,12,1.0,1.0,1.0*30
$GPRMC,074736.580,A,3731.011,N,12705.855,E,038.9,327.5,270819,000.0,W*7D
$GPGGA,074737.580,3731.021,N,12705.848,E,1,12,1.0,0.0,M,0.0,M,,*63
$GPGSA,A,3,01,02,03,04,05,06,07,08,09,10,11,12,1.0,1.0,1.0*30
$GPRMC,074737.580,A,3731.021,N,12705.848,E,038.9,327.5,270819,000.0,W*73
$GPGGA,074738.580,3731.030,N,12705.842,E,1,12,1.0,0.0,M,0.0,M,,*66
$GPGSA,A,3,01,02,03,04,05,06,07,08,09,10,11,12,1.0,1.0,1.0*30
$GPRMC,074738.580,A,3731.030,N,12705.842,E,038.9,327.5,270819,000.0,W*76
$GPGGA,074739.580,3731.040,N,12705.836,E,1,12,1.0,0.0,M,0.0,M,,*63
$GPGSA,A,3,01,02,03,04,05,06,07,08,09,10,11,12,1.0,1.0,1.0*30
$GPRMC,074739.580,A,3731.040,N,12705.836,E,038.9,327.5,270819,000.0,W*73
$GPGGA,074740.580,3731.050,N,12705.830,E,1,12,1.0,0.0,M,0.0,M,,*6A
$GPGSA,A,3,01,02,03,04,05,06,07,08,09,10,11,12,1.0,1.0,1.0*30
$GPRMC,074740.580,A,3731.050,N,12705.830,E,038.9,327.5,270819,000.0,W*7A
$GPGGA,074741.580,3731.059,N,12705.824,E,1,12,1.0,0.0,M,0.0,M,,*67
$GPGSA,A,3,01,02,03,04,05,06,07,08,09,10,11,12,1.0,1.0,1.0*30
$GPRMC,074741.580,A,3731.059,N,12705.824,E,038.9,327.5,270819,000.0,W*77
$GPGGA,074742.580,3731.069,N,12705.818,E,1,12,1.0,0.0,M,0.0,M,,*68
$GPGSA,A,3,01,02,03,04,05,06,07,08,09,10,11,12,1.0,1.0,1.0*30
$GPRMC,074742.580,A,3731.069,N,12705.818,E,038.9,327.5,270819,000.0,W*78
$GPGGA,074743.580,3731.078,N,12705.812,E,1,12,1.0,0.0,M,0.0,M,,*63
$GPGSA,A,3,01,02,03,04,05,06,07,08,09,10,11,12,1.0,1.0,1.0*30
$GPRMC,074743.580,A,3731.078,N,12705.812,E,038.9,327.5,270819,000.0,W*73
$GPGGA,074744.580,3731.088,N,12705.805,E,1,12,1.0,0.0,M,0.0,M,,*6D
$GPGSA,A,3,01,02,03,04,05,06,07,08,09,10,11,12,1.0,1.0,1.0*30
$GPRMC,074744.580,A,3731.088,N,12705.805,E,038.9,327.5,270819,000.0,W*7D
$GPGGA,074745.580,3731.098,N,12705.799,E,1,12,1.0,0.0,M,0.0,M,,*67
$GPGSA,A,3,01,02,03,04,05,06,07,08,09,10,11,12,1.0,1.0,1.0*30
$GPRMC,074745.580,A,3731.098,N,12705.799,E,038.9,327.5,270819,000.0,W*77
$GPGGA,074746.580,3731.107,N,12705.793,E,1,12,1.0,0.0,M,0.0,M,,*69
$GPGSA,A,3,01,02,03,04,05,06,07,08,09,10,11,12,1.0,1.0,1.0*30
$GPRMC,074746.580,A,3731.107,N,12705.793,E,038.9,327.5,270819,000.0,W*79
$GPGGA,074747.580,3731.117,N,12705.787,E,1,12,1.0,0.0,M,0.0,M,,*6C
$GPGSA,A,3,01,02,03,04,05,06,07,08,09,10,11,12,1.0,1.0,1.0*30
$GPRMC,074747.580,A,3731.117,N,12705.787,E,038.9,327.5,270819,000.0,W*7C
$GPGGA,074748.580,3731.127,N,12705.781,E,1,12,1.0,0.0,M,0.0,M,,*66
$GPGSA,A,3,01,02,03,04,05,06,07,08,09,10,11,12,1.0,1.0,1.0*30
$GPRMC,074748.580,A,3731.127,N,12705.781,E,038.9,012.9,270819,000.0,W*7F
$GPGGA,074749.580,3731.137,N,12705.783,E,1,12,1.0,0.0,M,0.0,M,,*64
$GPGSA,A,3,01,02,03,04,05,06,07,08,09,10,11,12,1.0,1.0,1.0*30
$GPRMC,074749.580,A,3731.137,N,12705.783,E,038.9,012.9,270819,000.0,W*7D
$GPGGA,074750.580,3731.148,N,12705.786,E,1,12,1.0,0.0,M,0.0,M,,*61
$GPGSA,A,3,01,02,03,04,05,06,07,08,09,10,11,12,1.0,1.0,1.0*30
$GPRMC,074750.580,A,3731.148,N,12705.786,E,038.9,012.9,270819,000.0,W*78
$GPGGA,074751.580,3731.158,N,12705.788,E,1,12,1.0,0.0,M,0.0,M,,*6F
$GPGSA,A,3,01,02,03,04,05,06,07,08,09,10,11,12,1.0,1.0,1.0*30
$GPRMC,074751.580,A,3731.158,N,12705.788,E,038.9,012.9,270819,000.0,W*76
$GPGGA,074752.580,3731.169,N,12705.791,E,1,12,1.0,0.0,M,0.0,M,,*66
$GPGSA,A,3,01,02,03,04,05,06,07,08,09,10,11,12,1.0,1.0,1.0*30
$GPRMC,074752.580,A,3731.169,N,12705.791,E,038.9,012.9,270819,000.0,W*7F
$GPGGA,074753.580,3731.180,N,12705.793,E,1,12,1.0,0.0,M,0.0,M,,*62
$GPGSA,A,3,01,02,03,04,05,06,07,08,09,10,11,12,1.0,1.0,1.0*30
$GPRMC,074753.580,A,3731.180,N,12705.793,E,038.9,057.6,270819,000.0,W*75
$GPGGA,074754.580,3731.186,N,12705.804,E,1,12,1.0,0.0,M,0.0,M,,*62
$GPGSA,A,3,01,02,03,04,05,06,07,08,09,10,11,12,1.0,1.0,1.0*30
$GPRMC,074754.580,A,3731.186,N,12705.804,E,038.9,057.6,270819,000.0,W*75
$GPGGA,074755.580,3731.193,N,12705.814,E,1,12,1.0,0.0,M,0.0,M,,*66
$GPGSA,A,3,01,02,03,04,05,06,07,08,09,10,11,12,1.0,1.0,1.0*30
$GPRMC,074755.580,A,3731.193,N,12705.814,E,038.9,057.6,270819,000.0,W*71
$GPGGA,074756.580,3731.200,N,12705.825,E,1,12,1.0,0.0,M,0.0,M,,*6E
$GPGSA,A,3,01,02,03,04,05,06,07,08,09,10,11,12,1.0,1.0,1.0*30
$GPRMC,074756.580,A,3731.200,N,12705.825,E,038.9,057.6,270819,000.0,W*79
$GPGGA,074757.580,3731.207,N,12705.836,E,1,12,1.0,0.0,M,0.0,M,,*6A
$GPGSA,A,3,01,02,03,04,05,06,07,08,09,10,11,12,1.0,1.0,1.0*30
$GPRMC,074757.580,A,3731.207,N,12705.836,E,038.9,057.6,270819,000.0,W*7D
$GPGGA,074758.580,3731.213,N,12705.846,E,1,12,1.0,0.0,M,0.0,M,,*67
$GPGSA,A,3,01,02,03,04,05,06,07,08,09,10,11,12,1.0,1.0,1.0*30
$GPRMC,074758.580,A,3731.213,N,12705.846,E,038.9,057.6,270819,000.0,W*70
$GPGGA,074759.580,3731.220,N,12705.857,E,1,12,1.0,0.0,M,0.0,M,,*66
$GPGSA,A,3,01,02,03,04,05,06,07,08,09,10,11,12,1.0,1.0,1.0*30
$GPRMC,074759.580,A,3731.220,N,12705.857,E,038.9,057.6,270819,000.0,W*71
$GPGGA,074800.580,3731.227,N,12705.868,E,1,12,1.0,0.0,M,0.0,M,,*6E
$GPGSA,A,3,01,02,03,04,05,06,07,08,09,10,11,12,1.0,1.0,1.0*30
$GPRMC,074800.580,A,3731.227,N,12705.868,E,038.9,057.6,270819,000.0,W*79
$GPGGA,074801.580,3731.234,N,12705.878,E,1,12,1.0,0.0,M,0.0,M,,*6C
$GPGSA,A,3,01,02,03,04,05,06,07,08,09,10,11,12,1.0,1.0,1.0*30
$GPRMC,074801.580,A,3731.234,N,12705.878,E,038.9,057.6,270819,000.0,W*7B
$GPGGA,074802.580,3731.240,N,12705.889,E,1,12,1.0,0.0,M,0.0,M,,*62
$GPGSA,A,3,01,02,03,04,05,06,07,08,09,10,11,12,1.0,1.0,1.0*30
$GPRMC,074802.580,A,3731.240,N,12705.889,E,038.9,057.6,270819,000.0,W*75
$GPGGA,074803.580,3731.247,N,12705.899,E,1,12,1.0,0.0,M,0.0,M,,*65
$GPGSA,A,3,01,02,03,04,05,06,07,08,09,10,11,12,1.0,1.0,1.0*30
$GPRMC,074803.580,A,3731.247,N,12705.899,E,038.9,057.6,270819,000.0,W*72
$GPGGA,074804.580,3731.254,N,12705.910,E,1,12,1.0,0.0,M,0.0,M,,*60
$GPGSA,A,3,01,02,03,04,05,06,07,08,09,10,11,12,1.0,1.0,1.0*30
$GPRMC,074804.580,A,3731.254,N,12705.910,E,038.9,057.6,270819,000.0,W*77
$GPGGA,074805.580,3731.261,N,12705.921,E,1,12,1.0,0.0,M,0.0,M,,*65
$GPGSA,A,3,01,02,03,04,05,06,07,08,09,10,11,12,1.0,1.0,1.0*30
$GPRMC,074805.580,A,3731.261,N,12705.921,E,038.9,057.6,270819,000.0,W*72
$GPGGA,074806.580,3731.267,N,12705.931,E,1,12,1.0,0.0,M,0.0,M,,*61
$GPGSA,A,3,01,02,03,04,05,06,07,08,09,10,11,12,1.0,1.0,1.0*30
$GPRMC,074806.580,A,3731.267,N,12705.931,E,038.9,057.6,270819,000.0,W*76
$GPGGA,074807.580,3731.274,N,12705.942,E,1,12,1.0,0.0,M,0.0,M,,*66
$GPGSA,A,3,01,02,03,04,05,06,07,08,09,10,11,12,1.0,1.0,1.0*30
$GPRMC,074807.580,A,3731.274,N,12705.942,E,038.9,057.6,270819,000.0,W*71
$GPGGA,074808.580,3731.281,N,12705.953,E,1,12,1.0,0.0,M,0.0,M,,*63
$GPGSA,A,3,01,02,03,04,05,06,07,08,09,10,11,12,1.0,1.0,1.0*30
$GPRMC,074808.580,A,3731.281,N,12705.953,E,038.9,057.6,270819,000.0,W*74
$GPGGA,074809.580,3731.287,N,12705.963,E,1,12,1.0,0.0,M,0.0,M,,*67
$GPGSA,A,3,01,02,03,04,05,06,07,08,09,10,11,12,1.0,1.0,1.0*30
$GPRMC,074809.580,A,3731.287,N,12705.963,E,038.9,057.6,270819,000.0,W*70
$GPGGA,074810.580,3731.294,N,12705.974,E,1,12,1.0,0.0,M,0.0,M,,*6B
$GPGSA,A,3,01,02,03,04,05,06,07,08,09,10,11,12,1.0,1.0,1.0*30
$GPRMC,074810.580,A,3731.294,N,12705.974,E,038.9,057.6,270819,000.0,W*7C
$GPGGA,074811.580,3731.301,N,12705.984,E,1,12,1.0,0.0,M,0.0,M,,*68
$GPGSA,A,3,01,02,03,04,05,06,07,08,09,10,11,12,1.0,1.0,1.0*30
$GPRMC,074811.580,A,3731.301,N,12705.984,E,038.9,057.6,270819,000.0,W*7F
$GPGGA,074812.580,3731.308,N,12705.995,E,1,12,1.0,0.0,M,0.0,M,,*62
$GPGSA,A,3,01,02,03,04,05,06,07,08,09,10,11,12,1.0,1.0,1.0*30
$GPRMC,074812.580,A,3731.308,N,12705.995,E,038.9,057.6,270819,000.0,W*75
$GPGGA,074813.580,3731.314,N,12706.006,E,1,12,1.0,0.0,M,0.0,M,,*6E
$GPGSA,A,3,01,02,03,04,05,06,07,08,09,10,11,12,1.0,1.0,1.0*30
$GPRMC,074813.580,A,3731.314,N,12706.006,E,038.9,057.6,270819,000.0,W*79
$GPGGA,074814.580,3731.321,N,12706.016,E,1,12,1.0,0.0,M,0.0,M,,*6E
$GPGSA,A,3,01,02,03,04,05,06,07,08,09,10,11,12,1.0,1.0,1.0*30
$GPRMC,074814.580,A,3731.321,N,12706.016,E,038.9,057.6,270819,000.0,W*79
$GPGGA,074815.580,3731.328,N,12706.027,E,1,12,1.0,0.0,M,0.0,M,,*64
$GPGSA,A,3,01,02,03,04,05,06,07,08,09,10,11,12,1.0,1.0,1.0*30
$GPRMC,074815.580,A,3731.328,N,12706.027,E,038.9,057.6,270819,000.0,W*73
$GPGGA,074816.580,3731.335,N,12706.038,E,1,12,1.0,0.0,M,0.0,M,,*65
$GPGSA,A,3,01,02,03,04,05,06,07,08,09,10,11,12,1.0,1.0,1.0*30
$GPRMC,074816.580,A,3731.335,N,12706.038,E,038.9,057.6,270819,000.0,W*72
$GPGGA,074817.580,3731.341,N,12706.048,E,1,12,1.0,0.0,M,0.0,M,,*60
$GPGSA,A,3,01,02,03,04,05,06,07,08,09,10,11,12,1.0,1.0,1.0*30
$GPRMC,074817.580,A,3731.341,N,12706.048,E,038.9,057.6,270819,000.0,W*77
$GPGGA,074818.580,3731.348,N,12706.059,E,1,12,1.0,0.0,M,0.0,M,,*66
$GPGSA,A,3,01,02,03,04,05,06,07,08,09,10,11,12,1.0,1.0,1.0*30
$GPRMC,074818.580,A,3731.348,N,12706.059,E,038.9,057.6,270819,000.0,W*71
$GPGGA,074819.580,3731.355,N,12706.070,E,1,12,1.0,0.0,M,0.0,M,,*60
$GPGSA,A,3,01,02,03,04,05,06,07,08,09,10,11,12,1.0,1.0,1.0*30
$GPRMC,074819.580,A,3731.355,N,12706.070,E,038.9,057.6,270819,000.0,W*77
$GPGGA,074820.580,3731.362,N,12706.080,E,1,12,1.0,0.0,M,0.0,M,,*61
$GPGSA,A,3,01,02,03,04,05,06,07,08,09,10,11,12,1.0,1.0,1.0*30
$GPRMC,074820.580,A,3731.362,N,12706.080,E,038.9,057.6,270819,000.0,W*76
$GPGGA,074821.580,3731.368,N,12706.091,E,1,12,1.0,0.0,M,0.0,M,,*6A
$GPGSA,A,3,01,02,03,04,05,06,07,08,09,10,11,12,1.0,1.0,1.0*30
$GPRMC,074821.580,A,3731.368,N,12706.091,E,038.9,057.6,270819,000.0,W*7D
$GPGGA,074822.580,3731.375,N,12706.101,E,1,12,1.0,0.0,M,0.0,M,,*6D
$GPGSA,A,3,01,02,03,04,05,06,07,08,09,10,11,12,1.0,1.0,1.0*30
$GPRMC,074822.580,A,3731.375,N,12706.101,E,038.9,057.6,270819,000.0,W*7A
$GPGGA,074823.580,3731.382,N,12706.112,E,1,12,1.0,0.0,M,0.0,M,,*66
$GPGSA,A,3,01,02,03,04,05,06,07,08,09,10,11,12,1.0,1.0,1.0*30
$GPRMC,074823.580,A,3731.382,N,12706.112,E,038.9,057.6,270819,000.0,W*71
$GPGGA,074824.580,3731.388,N,12706.123,E,1,12,1.0,0.0,M,0.0,M,,*69
$GPGSA,A,3,01,02,03,04,05,06,07,08,09,10,11,12,1.0,1.0,1.0*30
$GPRMC,074824.580,A,3731.388,N,12706.123,E,038.9,057.6,270819,000.0,W*7E
$GPGGA,074825.580,3731.395,N,12706.133,E,1,12,1.0,0.0,M,0.0,M,,*65
$GPGSA,A,3,01,02,03,04,05,06,07,08,09,10,11,12,1.0,1.0,1.0*30
$GPRMC,074825.580,A,3731.395,N,12706.133,E,038.9,057.6,270819,000.0,W*72
$GPGGA,074826.580,3731.402,N,12706.144,E,1,12,1.0,0.0,M,0.0,M,,*6F
$GPGSA,A,3,01,02,03,04,05,06,07,08,09,10,11,12,1.0,1.0,1.0*30
$GPRMC,074826.580,A,3731.402,N,12706.144,E,038.9,057.6,270819,000.0,W*78
$GPGGA,074827.580,3731.409,N,12706.155,E,1,12,1.0,0.0,M,0.0,M,,*65
$GPGSA,A,3,01,02,03,04,05,06,07,08,09,10,11,12,1.0,1.0,1.0*30
$GPRMC,074827.580,A,3731.409,N,12706.155,E,038.9,057.6,270819,000.0,W*72
$GPGGA,074828.580,3731.415,N,12706.165,E,1,12,1.0,0.0,M,0.0,M,,*64
$GPGSA,A,3,01,02,03,04,05,06,07,08,09,10,11,12,1.0,1.0,1.0*30
$GPRMC,074828.580,A,3731.415,N,12706.165,E,038.9,057.6,270819,000.0,W*73
$GPGGA,074829.580,3731.422,N,12706.176,E,1,12,1.0,0.0,M,0.0,M,,*63
$GPGSA,A,3,01,02,03,04,05,06,07,08,09,10,11,12,1.0,1.0,1.0*30
$GPRMC,074829.580,A,3731.422,N,12706.176,E,038.9,057.6,270819,000.0,W*74
$GPGGA,074830.580,3731.429,N,12706.187,E,1,12,1.0,0.0,M,0.0,M,,*6E
$GPGSA,A,3,01,02,03,04,05,06,07,08,09,10,11,12,1.0,1.0,1.0*30
$GPRMC,074830.580,A,3731.429,N,12706.187,E,038.9,048.4,270819,000.0,W*75
$GPGGA,074831.580,3731.437,N,12706.196,E,1,12,1.0,0.0,M,0.0,M,,*60
$GPGSA,A,3,01,02,03,04,05,06,07,08,09,10,11,12,1.0,1.0,1.0*30
$GPRMC,074831.580,A,3731.437,N,12706.196,E,038.9,048.4,270819,000.0,W*7B
$GPGGA,074832.580,3731.445,N,12706.205,E,1,12,1.0,0.0,M,0.0,M,,*6F
$GPGSA,A,3,01,02,03,04,05,06,07,08,09,10,11,12,1.0,1.0,1.0*30
$GPRMC,074832.580,A,3731.445,N,12706.205,E,038.9,048.4,270819,000.0,W*74
$GPGGA,074833.580,3731.453,N,12706.214,E,1,12,1.0,0.0,M,0.0,M,,*69
$GPGSA,A,3,01,02,03,04,05,06,07,08,09,10,11,12,1.0,1.0,1.0*30
$GPRMC,074833.580,A,3731.453,N,12706.214,E,038.9,048.4,270819,000.0,W*72
$GPGGA,074834.580,3731.461,N,12706.223,E,1,12,1.0,0.0,M,0.0,M,,*6B
$GPGSA,A,3,01,02,03,04,05,06,07,08,09,10,11,12,1.0,1.0,1.0*30
$GPRMC,074834.580,A,3731.461,N,12706.223,E,038.9,048.4,270819,000.0,W*70
$GPGGA,074835.580,3731.469,N,12706.232,E,1,12,1.0,0.0,M,0.0,M,,*62
$GPGSA,A,3,01,02,03,04,05,06,07,08,09,10,11,12,1.0,1.0,1.0*30
$GPRMC,074835.580,A,3731.469,N,12706.232,E,038.9,048.4,270819,000.0,W*79
$GPGGA,074836.580,3731.477,N,12706.241,E,1,12,1.0,0.0,M,0.0,M,,*6A
$GPGSA,A,3,01,02,03,04,05,06,07,08,09,10,11,12,1.0,1.0,1.0*30
$GPRMC,074836.580,A,3731.477,N,12706.241,E,038.9,048.4,270819,000.0,W*71
$GPGGA,074837.580,3731.485,N,12706.250,E,1,12,1.0,0.0,M,0.0,M,,*66
$GPGSA,A,3,01,02,03,04,05,06,07,08,09,10,11,12,1.0,1.0,1.0*30
$GPRMC,074837.580,A,3731.485,N,12706.250,E,038.9,048.4,270819,000.0,W*7D
$GPGGA,074838.580,3731.493,N,12706.259,E,1,12,1.0,0.0,M,0.0,M,,*67
$GPGSA,A,3,01,02,03,04,05,06,07,08,09,10,11,12,1.0,1.0,1.0*30
$GPRMC,074838.580,A,3731.493,N,12706.259,E,038.9,048.4,270819,000.0,W*7C
$GPGGA,074839.580,3731.501,N,12706.268,E,1,12,1.0,0.0,M,0.0,M,,*6E
$GPGSA,A,3,01,02,03,04,05,06,07,08,09,10,11,12,1.0,1.0,1.0*30
$GPRMC,074839.580,A,3731.501,N,12706.268,E,038.9,048.4,270819,000.0,W*75
$GPGGA,074840.580,3731.509,N,12706.277,E,1,12,1.0,0.0,M,0.0,M,,*66
$GPGSA,A,3,01,02,03,04,05,06,07,08,09,10,11,12,1.0,1.0,1.0*30
$GPRMC,074840.580,A,3731.509,N,12706.277,E,038.9,048.4,270819,000.0,W*7D
$GPGGA,074841.580,3731.517,N,12706.286,E,1,12,1.0,0.0,M,0.0,M,,*66
$GPGSA,A,3,01,02,03,04,05,06,07,08,09,10,11,12,1.0,1.0,1.0*30
$GPRMC,074841.580,A,3731.517,N,12706.286,E,038.9,048.4,270819,000.0,W*7D
$GPGGA,074842.580,3731.525,N,12706.295,E,1,12,1.0,0.0,M,0.0,M,,*66
$GPGSA,A,3,01,02,03,04,05,06,07,08,09,10,11,12,1.0,1.0,1.0*30
$GPRMC,074842.580,A,3731.525,N,12706.295,E,038.9,048.4,270819,000.0,W*7D
$GPGGA,074843.580,3731.533,N,12706.304,E,1,12,1.0,0.0,M,0.0,M,,*69
$GPGSA,A,3,01,02,03,04,05,06,07,08,09,10,11,12,1.0,1.0,1.0*30
$GPRMC,074843.580,A,3731.533,N,12706.304,E,038.9,048.4,270819,000.0,W*72
$GPGGA,074844.580,3731.541,N,12706.314,E,1,12,1.0,0.0,M,0.0,M,,*6A
$GPGSA,A,3,01,02,03,04,05,06,07,08,09,10,11,12,1.0,1.0,1.0*30
$GPRMC,074844.580,A,3731.541,N,12706.314,E,038.9,048.4,270819,000.0,W*71
$GPGGA,074845.580,3731.549,N,12706.323,E,1,12,1.0,0.0,M,0.0,M,,*67
$GPGSA,A,3,01,02,03,04,05,06,07,08,09,10,11,12,1.0,1.0,1.0*30
$GPRMC,074845.580,A,3731.549,N,12706.323,E,038.9,048.4,270819,000.0,W*7C
$GPGGA,074846.580,3731.558,N,12706.332,E,1,12,1.0,0.0,M,0.0,M,,*64
$GPGSA,A,3,01,02,03,04,05,06,07,08,09,10,11,12,1.0,1.0,1.0*30
$GPRMC,074846.580,A,3731.558,N,12706.332,E,038.9,048.4,270819,000.0,W*7F
$GPGGA,074847.580,3731.566,N,12706.341,E,1,12,1.0,0.0,M,0.0,M,,*6C
$GPGSA,A,3,01,02,03,04,05,06,07,08,09,10,11,12,1.0,1.0,1.0*30
$GPRMC,074847.580,A,3731.566,N,12706.341,E,038.9,048.4,270819,000.0,W*77
$GPGGA,074848.580,3731.574,N,12706.350,E,1,12,1.0,0.0,M,0.0,M,,*60
$GPGSA,A,3,01,02,03,04,05,06,07,08,09,10,11,12,1.0,1.0,1.0*30
$GPRMC,074848.580,A,3731.574,N,12706.350,E,038.9,048.4,270819,000.0,W*7B
$GPGGA,074849.580,3731.582,N,12706.359,E,1,12,1.0,0.0,M,0.0,M,,*61
$GPGSA,A,3,01,02,03,04,05,06,07,08,09,10,11,12,1.0,1.0,1.0*30
$GPRMC,074849.580,A,3731.582,N,12706.359,E,038.9,048.4,270819,000.0,W*7A
$GPGGA,074850.580,3731.590,N,12706.368,E,1,12,1.0,0.0,M,0.0,M,,*68
$GPGSA,A,3,01,02,03,04,05,06,07,08,09,10,11,12,1.0,1.0,1.0*30
$GPRMC,074850.580,A,3731.590,N,12706.368,E,038.9,048.4,270819,000.0,W*73
$GPGGA,074851.580,3731.598,N,12706.377,E,1,12,1.0,0.0,M,0.0,M,,*6F
$GPGSA,A,3,01,02,03,04,05,06,07,08,09,10,11,12,1.0,1.0,1.0*30
$GPRMC,074851.580,A,3731.598,N,12706.377,E,038.9,048.4,270819,000.0,W*74
$GPGGA,074852.580,3731.606,N,12706.386,E,1,12,1.0,0.0,M,0.0,M,,*66
$GPGSA,A,3,01,02,03,04,05,06,07,08,09,10,11,12,1.0,1.0,1.0*30
$GPRMC,074852.580,A,3731.606,N,12706.386,E,038.9,048.4,270819,000.0,W*7D
$GPGGA,074853.580,3731.614,N,12706.395,E,1,12,1.0,0.0,M,0.0,M,,*66
$GPGSA,A,3,01,02,03,04,05,06,07,08,09,10,11,12,1.0,1.0,1.0*30
$GPRMC,074853.580,A,3731.614,N,12706.395,E,038.9,048.4,270819,000.0,W*7D
$GPGGA,074854.580,3731.622,N,12706.404,E,1,12,1.0,0.0,M,0.0,M,,*6B
$GPGSA,A,3,01,02,03,04,05,06,07,08,09,10,11,12,1.0,1.0,1.0*30
$GPRMC,074854.580,A,3731.622,N,12706.404,E,038.9,048.4,270819,000.0,W*70
$GPGGA,074855.580,3731.630,N,12706.413,E,1,12,1.0,0.0,M,0.0,M,,*6F
$GPGSA,A,3,01,02,03,04,05,06,07,08,09,10,11,12,1.0,1.0,1.0*30
$GPRMC,074855.580,A,3731.630,N,12706.413,E,038.9,048.4,270819,000.0,W*74
$GPGGA,074856.580,3731.638,N,12706.422,E,1,12,1.0,0.0,M,0.0,M,,*66
$GPGSA,A,3,01,02,03,04,05,06,07,08,09,10,11,12,1.0,1.0,1.0*30
$GPRMC,074856.580,A,3731.638,N,12706.422,E,038.9,048.4,270819,000.0,W*7D
$GPGGA,074857.580,3731.646,N,12706.432,E,1,12,1.0,0.0,M,0.0,M,,*6F
$GPGSA,A,3,01,02,03,04,05,06,07,08,09,10,11,12,1.0,1.0,1.0*30
$GPRMC,074857.580,A,3731.646,N,12706.432,E,038.9,048.4,270819,000.0,W*74
$GPGGA,074858.580,3731.654,N,12706.441,E,1,12,1.0,0.0,M,0.0,M,,*67
$GPGSA,A,3,01,02,03,04,05,06,07,08,09,10,11,12,1.0,1.0,1.0*30
$GPRMC,074858.580,A,3731.654,N,12706.441,E,038.9,048.4,270819,000.0,W*7C
$GPGGA,074859.580,3731.662,N,12706.450,E,1,12,1.0,0.0,M,0.0,M,,*63
$GPGSA,A,3,01,02,03,04,05,06,07,08,09,10,11,12,1.0,1.0,1.0*30
$GPRMC,074859.580,A,3731.662,N,12706.450,E,038.9,048.4,270819,000.0,W*78
$GPGGA,074900.580,3731.670,N,12706.459,E,1,12,1.0,0.0,M,0.0,M,,*64
$GPGSA,A,3,01,02,03,04,05,06,07,08,09,10,11,12,1.0,1.0,1.0*30
$GPRMC,074900.580,A,3731.670,N,12706.459,E,038.9,048.4,270819,000.0,W*7F
$GPGGA,074901.580,3731.678,N,12706.468,E,1,12,1.0,0.0,M,0.0,M,,*6F
$GPGSA,A,3,01,02,03,04,05,06,07,08,09,10,11,12,1.0,1.0,1.0*30
$GPRMC,074901.580,A,3731.678,N,12706.468,E,038.9,045.8,270819,000.0,W*75
$GPGGA,074902.580,3731.687,N,12706.476,E,1,12,1.0,0.0,M,0.0,M,,*63
$GPGSA,A,3,01,02,03,04,05,06,07,08,09,10,11,12,1.0,1.0,1.0*30
$GPRMC,074902.580,A,3731.687,N,12706.476,E,038.9,045.8,270819,000.0,W*79
$GPGGA,074903.580,3731.695,N,12706.485,E,1,12,1.0,0.0,M,0.0,M,,*6D
$GPGSA,A,3,01,02,03,04,05,06,07,08,09,10,11,12,1.0,1.0,1.0*30
$GPRMC,074903.580,A,3731.695,N,12706.485,E,038.9,045.8,270819,000.0,W*77
$GPGGA,074904.580,3731.703,N,12706.494,E,1,12,1.0,0.0,M,0.0,M,,*64
$GPGSA,A,3,01,02,03,04,05,06,07,08,09,10,11,12,1.0,1.0,1.0*30
$GPRMC,074904.580,A,3731.703,N,12706.494,E,038.9,045.8,270819,000.0,W*7E
$GPGGA,074905.580,3731.712,N,12706.502,E,1,12,1.0,0.0,M,0.0,M,,*6B
$GPGSA,A,3,01,02,03,04,05,06,07,08,09,10,11,12,1.0,1.0,1.0*30
$GPRMC,074905.580,A,3731.712,N,12706.502,E,038.9,045.8,270819,000.0,W*71
$GPGGA,074906.580,3731.720,N,12706.511,E,1,12,1.0,0.0,M,0.0,M,,*6B
$GPGSA,A,3,01,02,03,04,05,06,07,08,09,10,11,12,1.0,1.0,1.0*30
$GPRMC,074906.580,A,3731.720,N,12706.511,E,038.9,045.8,270819,000.0,W*71
$GPGGA,074907.580,3731.728,N,12706.519,E,1,12,1.0,0.0,M,0.0,M,,*6A
$GPGSA,A,3,01,02,03,04,05,06,07,08,09,10,11,12,1.0,1.0,1.0*30
$GPRMC,074907.580,A,3731.728,N,12706.519,E,038.9,045.8,270819,000.0,W*70
$GPGGA,074908.580,3731.737,N,12706.528,E,1,12,1.0,0.0,M,0.0,M,,*69
$GPGSA,A,3,01,02,03,04,05,06,07,08,09,10,11,12,1.0,1.0,1.0*30
$GPRMC,074908.580,A,3731.737,N,12706.528,E,038.9,045.8,270819,000.0,W*73
$GPGGA,074909.580,3731.745,N,12706.537,E,1,12,1.0,0.0,M,0.0,M,,*63
$GPGSA,A,3,01,02,03,04,05,06,07,08,09,10,11,12,1.0,1.0,1.0*30
$GPRMC,074909.580,A,3731.745,N,12706.537,E,038.9,045.8,270819,000.0,W*79
$GPGGA,074910.580,3731.753,N,12706.545,E,1,12,1.0,0.0,M,0.0,M,,*69
$GPGSA,A,3,01,02,03,04,05,06,07,08,09,10,11,12,1.0,1.0,1.0*30
$GPRMC,074910.580,A,3731.753,N,12706.545,E,038.9,045.8,270819,000.0,W*73
$GPGGA,074911.580,3731.762,N,12706.554,E,1,12,1.0,0.0,M,0.0,M,,*6A
$GPGSA,A,3,01,02,03,04,05,06,07,08,09,10,11,12,1.0,1.0,1.0*30
$GPRMC,074911.580,A,3731.762,N,12706.554,E,038.9,045.8,270819,000.0,W*70
$GPGGA,074912.580,3731.770,N,12706.563,E,1,12,1.0,0.0,M,0.0,M,,*6E
$GPGSA,A,3,01,02,03,04,05,06,07,08,09,10,11,12,1.0,1.0,1.0*30
$GPRMC,074912.580,A,3731.770,N,12706.563,E,038.9,045.8,270819,000.0,W*74
$GPGGA,074913.580,3731.778,N,12706.571,E,1,12,1.0,0.0,M,0.0,M,,*64
$GPGSA,A,3,01,02,03,04,05,06,07,08,09,10,11,12,1.0,1.0,1.0*30
$GPRMC,074913.580,A,3731.778,N,12706.571,E,038.9,045.8,270819,000.0,W*7E
$GPGGA,074914.580,3731.787,N,12706.580,E,1,12,1.0,0.0,M,0.0,M,,*6D
$GPGSA,A,3,01,02,03,04,05,06,07,08,09,10,11,12,1.0,1.0,1.0*30
$GPRMC,074914.580,A,3731.787,N,12706.580,E,038.9,045.8,270819,000.0,W*77
$GPGGA,074915.580,3731.795,N,12706.588,E,1,12,1.0,0.0,M,0.0,M,,*67
$GPGSA,A,3,01,02,03,04,05,06,07,08,09,10,11,12,1.0,1.0,1.0*30
$GPRMC,074915.580,A,3731.795,N,12706.588,E,038.9,010.1,270819,000.0,W*74
$GPGGA,074916.580,3731.806,N,12706.590,E,1,12,1.0,0.0,M,0.0,M,,*68
$GPGSA,A,3,01,02,03,04,05,06,07,08,09,10,11,12,1.0,1.0,1.0*30
$GPRMC,074916.580,A,3731.806,N,12706.590,E,038.9,010.1,270819,000.0,W*7B
$GPGGA,074917.580,3731.817,N,12706.592,E,1,12,1.0,0.0,M,0.0,M,,*6B
$GPGSA,A,3,01,02,03,04,05,06,07,08,09,10,11,12,1.0,1.0,1.0*30
$GPRMC,074917.580,A,3731.817,N,12706.592,E,038.9,010.1,270819,000.0,W*78
$GPGGA,074918.580,3731.827,N,12706.594,E,1,12,1.0,0.0,M,0.0,M,,*61
$GPGSA,A,3,01,02,03,04,05,06,07,08,09,10,11,12,1.0,1.0,1.0*30
$GPRMC,074918.580,A,3731.827,N,12706.594,E,038.9,010.1,270819,000.0,W*72
$GPGGA,074919.580,3731.838,N,12706.596,E,1,12,1.0,0.0,M,0.0,M,,*6C
$GPGSA,A,3,01,02,03,04,05,06,07,08,09,10,11,12,1.0,1.0,1.0*30
$GPRMC,074919.580,A,3731.838,N,12706.596,E,038.9,010.1,270819,000.0,W*7F
$GPGGA,074920.580,3731.849,N,12706.598,E,1,12,1.0,0.0,M,0.0,M,,*6E
$GPGSA,A,3,01,02,03,04,05,06,07,08,09,10,11,12,1.0,1.0,1.0*30
$GPRMC,074920.580,A,3731.849,N,12706.598,E,038.9,010.1,270819,000.0,W*7D
$GPGGA,074921.580,3731.859,N,12706.600,E,1,12,1.0,0.0,M,0.0,M,,*6C
$GPGSA,A,3,01,02,03,04,05,06,07,08,09,10,11,12,1.0,1.0,1.0*30
$GPRMC,074921.580,A,3731.859,N,12706.600,E,038.9,010.1,270819,000.0,W*7F
$GPGGA,074922.580,3731.870,N,12706.602,E,1,12,1.0,0.0,M,0.0,M,,*66
$GPGSA,A,3,01,02,03,04,05,06,07,08,09,10,11,12,1.0,1.0,1.0*30
$GPRMC,074922.580,A,3731.870,N,12706.602,E,038.9,010.1,270819,000.0,W*75
$GPGGA,074923.580,3731.881,N,12706.604,E,1,12,1.0,0.0,M,0.0,M,,*6F
$GPGSA,A,3,01,02,03,04,05,06,07,08,09,10,11,12,1.0,1.0,1.0*30
$GPRMC,074923.580,A,3731.881,N,12706.604,E,038.9,010.1,270819,000.0,W*7C
$GPGGA,074924.580,3731.891,N,12706.606,E,1,12,1.0,0.0,M,0.0,M,,*6B
$GPGSA,A,3,01,02,03,04,05,06,07,08,09,10,11,12,1.0,1.0,1.0*30
$GPRMC,074924.580,A,3731.891,N,12706.606,E,038.9,010.1,270819,000.0,W*78
$GPGGA,074925.580,3731.902,N,12706.608,E,1,12,1.0,0.0,M,0.0,M,,*6F
$GPGSA,A,3,01,02,03,04,05,06,07,08,09,10,11,12,1.0,1.0,1.0*30
$GPRMC,074925.580,A,3731.902,N,12706.608,E,038.9,010.1,270819,000.0,W*7C
$GPGGA,074926.580,3731.913,N,12706.609,E,1,12,1.0,0.0,M,0.0,M,,*6D
$GPGSA,A,3,01,02,03,04,05,06,07,08,09,10,11,12,1.0,1.0,1.0*30
$GPRMC,074926.580,A,3731.913,N,12706.609,E,038.9,010.1,270819,000.0,W*7E
$GPGGA,074927.580,3731.923,N,12706.611,E,1,12,1.0,0.0,M,0.0,M,,*66
$GPGSA,A,3,01,02,03,04,05,06,07,08,09,10,11,12,1.0,1.0,1.0*30
$GPRMC,074927.580,A,3731.923,N,12706.611,E,038.9,010.1,270819,000.0,W*75
$GPGGA,074928.580,3731.934,N,12706.613,E,1,12,1.0,0.0,M,0.0,M,,*6D
$GPGSA,A,3,01,02,03,04,05,06,07,08,09,10,11,12,1.0,1.0,1.0*30
$GPRMC,074928.580,A,3731.934,N,12706.613,E,038.9,010.1,270819,000.0,W*7E
$GPGGA,074929.580,3731.945,N,12706.615,E,1,12,1.0,0.0,M,0.0,M,,*6C
$GPGSA,A,3,01,02,03,04,05,06,07,08,09,10,11,12,1.0,1.0,1.0*30
$GPRMC,074929.580,A,3731.945,N,12706.615,E,038.9,010.1,270819,000.0,W*7F
$GPGGA,074930.580,3731.955,N,12706.617,E,1,12,1.0,0.0,M,0.0,M,,*67
$GPGSA,A,3,01,02,03,04,05,06,07,08,09,10,11,12,1.0,1.0,1.0*30
$GPRMC,074930.580,A,3731.955,N,12706.617,E,038.9,010.1,270819,000.0,W*74
$GPGGA,074931.580,3731.966,N,12706.619,E,1,12,1.0,0.0,M,0.0,M,,*68
$GPGSA,A,3,01,02,03,04,05,06,07,08,09,10,11,12,1.0,1.0,1.0*30
$GPRMC,074931.580,A,3731.966,N,12706.619,E,038.9,026.3,270819,000.0,W*7C
$GPGGA,074932.580,3731.976,N,12706.624,E,1,12,1.0,0.0,M,0.0,M,,*64
$GPGSA,A,3,01,02,03,04,05,06,07,08,09,10,11,12,1.0,1.0,1.0*30
$GPRMC,074932.580,A,3731.976,N,12706.624,E,038.9,026.3,270819,000.0,W*70
$GPGGA,074933.580,3731.986,N,12706.629,E,1,12,1.0,0.0,M,0.0,M,,*67
$GPGSA,A,3,01,02,03,04,05,06,07,08,09,10,11,12,1.0,1.0,1.0*30
$GPRMC,074933.580,A,3731.986,N,12706.629,E,038.9,026.3,270819,000.0,W*73
$GPGGA,074934.580,3731.996,N,12706.634,E,1,12,1.0,0.0,M,0.0,M,,*6D
$GPGSA,A,3,01,02,03,04,05,06,07,08,09,10,11,12,1.0,1.0,1.0*30
$GPRMC,074934.580,A,3731.996,N,12706.634,E,038.9,026.3,270819,000.0,W*79
$GPGGA,074935.580,3732.006,N,12706.639,E,1,12,1.0,0.0,M,0.0,M,,*62
$GPGSA,A,3,01,02,03,04,05,06,07,08,09,10,11,12,1.0,1.0,1.0*30
$GPRMC,074935.580,A,3732.006,N,12706.639,E,038.9,026.3,270819,000.0,W*76
$GPGGA,074936.580,3732.016,N,12706.644,E,1,12,1.0,0.0,M,0.0,M,,*6A
$GPGSA,A,3,01,02,03,04,05,06,07,08,09,10,11,12,1.0,1.0,1.0*30
$GPRMC,074936.580,A,3732.016,N,12706.644,E,038.9,026.3,270819,000.0,W*7E
$GPGGA,074937.580,3732.026,N,12706.649,E,1,12,1.0,0.0,M,0.0,M,,*65
$GPGSA,A,3,01,02,03,04,05,06,07,08,09,10,11,12,1.0,1.0,1.0*30
$GPRMC,074937.580,A,3732.026,N,12706.649,E,038.9,026.3,270819,000.0,W*71
$GPGGA,074938.580,3732.036,N,12706.654,E,1,12,1.0,0.0,M,0.0,M,,*67
$GPGSA,A,3,01,02,03,04,05,06,07,08,09,10,11,12,1.0,1.0,1.0*30
$GPRMC,074938.580,A,3732.036,N,12706.654,E,038.9,026.3,270819,000.0,W*73
$GPGGA,074939.580,3732.046,N,12706.659,E,1,12,1.0,0.0,M,0.0,M,,*6C
$GPGSA,A,3,01,02,03,04,05,06,07,08,09,10,11,12,1.0,1.0,1.0*30
$GPRMC,074939.580,A,3732.046,N,12706.659,E,038.9,026.3,270819,000.0,W*78
$GPGGA,074940.580,3732.056,N,12706.664,E,1,12,1.0,0.0,M,0.0,M,,*6D
$GPGSA,A,3,01,02,03,04,05,06,07,08,09,10,11,12,1.0,1.0,1.0*30
$GPRMC,074940.580,A,3732.056,N,12706.664,E,038.9,026.3,270819,000.0,W*79
$GPGGA,074941.580,3732.067,N,12706.669,E,1,12,1.0,0.0,M,0.0,M,,*63
$GPGSA,A,3,01,02,03,04,05,06,07,08,09,10,11,12,1.0,1.0,1.0*30
$GPRMC,074941.580,A,3732.067,N,12706.669,E,038.9,026.3,270819,000.0,W*77
$GPGGA,074942.580,3732.077,N,12706.674,E,1,12,1.0,0.0,M,0.0,M,,*6D
$GPGSA,A,3,01,02,03,04,05,06,07,08,09,10,11,12,1.0,1.0,1.0*30
$GPRMC,074942.580,A,3732.077,N,12706.674,E,038.9,026.3,270819,000.0,W*79
$GPGGA,074943.580,3732.087,N,12706.679,E,1,12,1.0,0.0,M,0.0,M,,*6E
$GPGSA,A,3,01,02,03,04,05,06,07,08,09,10,11,12,1.0,1.0,1.0*30
$GPRMC,074943.580,A,3732.087,N,12706.679,E,038.9,026.3,270819,000.0,W*7A
$GPGGA,074944.580,3732.097,N,12706.684,E,1,12,1.0,0.0,M,0.0,M,,*6A
$GPGSA,A,3,01,02,03,04,05,06,07,08,09,10,11,12,1.0,1.0,1.0*30
$GPRMC,074944.580,A,3732.097,N,12706.684,E,038.9,026.3,270819,000.0,W*7E
$GPGGA,074945.580,3732.107,N,12706.689,E,1,12,1.0,0.0,M,0.0,M,,*6E
$GPGSA,A,3,01,02,03,04,05,06,07,08,09,10,11,12,1.0,1.0,1.0*30
$GPRMC,074945.580,A,3732.107,N,12706.689,E,038.9,050.7,270819,000.0,W*7F
$GPGGA,074946.580,3732.114,N,12706.698,E,1,12,1.0,0.0,M,0.0,M,,*6F
$GPGSA,A,3,01,02,03,04,05,06,07,08,09,10,11,12,1.0,1.0,1.0*30
$GPRMC,074946.580,A,3732.114,N,12706.698,E,038.9,050.7,270819,000.0,W*7E
$GPGGA,074947.580,3732.122,N,12706.708,E,1,12,1.0,0.0,M,0.0,M,,*63
$GPGSA,A,3,01,02,03,04,05,06,07,08,09,10,11,12,1.0,1.0,1.0*30
$GPRMC,074947.580,A,3732.122,N,12706.708,E,038.9,050.7,270819,000.0,W*72
$GPGGA,074948.580,3732.130,N,12706.717,E,1,12,1.0,0.0,M,0.0,M,,*61
$GPGSA,A,3,01,02,03,04,05,06,07,08,09,10,11,12,1.0,1.0,1.0*30
$GPRMC,074948.580,A,3732.130,N,12706.717,E,038.9,050.7,270819,000.0,W*70
$GPGGA,074949.580,3732.138,N,12706.727,E,1,12,1.0,0.0,M,0.0,M,,*6B
$GPGSA,A,3,01,02,03,04,05,06,07,08,09,10,11,12,1.0,1.0,1.0*30
$GPRMC,074949.580,A,3732.138,N,12706.727,E,038.9,050.7,270819,000.0,W*7A
$GPGGA,074950.580,3732.145,N,12706.736,E,1,12,1.0,0.0,M,0.0,M,,*69
$GPGSA,A,3,01,02,03,04,05,06,07,08,09,10,11,12,1.0,1.0,1.0*30
$GPRMC,074950.580,A,3732.145,N,12706.736,E,038.9,050.7,270819,000.0,W*78
$GPGGA,074951.580,3732.153,N,12706.746,E,1,12,1.0,0.0,M,0.0,M,,*68
$GPGSA,A,3,01,02,03,04,05,06,07,08,09,10,11,12,1.0,1.0,1.0*30
$GPRMC,074951.580,A,3732.153,N,12706.746,E,038.9,050.7,270819,000.0,W*79
$GPGGA,074952.580,3732.161,N,12706.755,E,1,12,1.0,0.0,M,0.0,M,,*68
$GPGSA,A,3,01,02,03,04,05,06,07,08,09,10,11,12,1.0,1.0,1.0*30
$GPRMC,074952.580,A,3732.161,N,12706.755,E,038.9,050.7,270819,000.0,W*79
$GPGGA,074953.580,3732.169,N,12706.765,E,1,12,1.0,0.0,M,0.0,M,,*62
$GPGSA,A,3,01,02,03,04,05,06,07,08,09,10,11,12,1.0,1.0,1.0*30
$GPRMC,074953.580,A,3732.169,N,12706.765,E,038.9,050.7,270819,000.0,W*73
$GPGGA,074954.580,3732.176,N,12706.774,E,1,12,1.0,0.0,M,0.0,M,,*6B
$GPGSA,A,3,01,02,03,04,05,06,07,08,09,10,11,12,1.0,1.0,1.0*30
$GPRMC,074954.580,A,3732.176,N,12706.774,E,038.9,050.7,270819,000.0,W*7A
$GPGGA,074955.580,3732.184,N,12706.783,E,1,12,1.0,0.0,M,0.0,M,,*6F
$GPGSA,A,3,01,02,03,04,05,06,07,08,09,10,11,12,1.0,1.0,1.0*30
$GPRMC,074955.580,A,3732.184,N,12706.783,E,038.9,050.7,270819,000.0,W*7E
$GPGGA,074956.580,3732.192,N,12706.793,E,1,12,1.0,0.0,M,0.0,M,,*6A
$GPGSA,A,3,01,02,03,04,05,06,07,08,09,10,11,12,1.0,1.0,1.0*30
$GPRMC,074956.580,A,3732.192,N,12706.793,E,038.9,050.7,270819,000.0,W*7B
$GPGGA,074957.580,3732.200,N,12706.802,E,1,12,1.0,0.0,M,0.0,M,,*64
$GPGSA,A,3,01,02,03,04,05,06,07,08,09,10,11,12,1.0,1.0,1.0*30
$GPRMC,074957.580,A,3732.200,N,12706.802,E,038.9,050.7,270819,000.0,W*75
$GPGGA,074958.580,3732.207,N,12706.812,E,1,12,1.0,0.0,M,0.0,M,,*6D
$GPGSA,A,3,01,02,03,04,05,06,07,08,09,10,11,12,1.0,1.0,1.0*30
$GPRMC,074958.580,A,3732.207,N,12706.812,E,038.9,050.7,270819,000.0,W*7C
$GPGGA,074959.580,3732.215,N,12706.821,E,1,12,1.0,0.0,M,0.0,M,,*6F
$GPGSA,A,3,01,02,03,04,05,06,07,08,09,10,11,12,1.0,1.0,1.0*30
$GPRMC,074959.580,A,3732.215,N,12706.821,E,038.9,050.7,270819,000.0,W*7E
$GPGGA,075000.580,3732.223,N,12706.831,E,1,12,1.0,0.0,M,0.0,M,,*6F
$GPGSA,A,3,01,02,03,04,05,06,07,08,09,10,11,12,1.0,1.0,1.0*30
$GPRMC,075000.580,A,3732.223,N,12706.831,E,038.9,050.7,270819,000.0,W*7E
$GPGGA,075001.580,3732.231,N,12706.840,E,1,12,1.0,0.0,M,0.0,M,,*6B
$GPGSA,A,3,01,02,03,04,05,06,07,08,09,10,11,12,1.0,1.0,1.0*30
$GPRMC,075001.580,A,3732.231,N,12706.840,E,038.9,050.7,270819,000.0,W*7A
$GPGGA,075002.580,3732.238,N,12706.850,E,1,12,1.0,0.0,M,0.0,M,,*60
$GPGSA,A,3,01,02,03,04,05,06,07,08,09,10,11,12,1.0,1.0,1.0*30
$GPRMC,075002.580,A,3732.238,N,12706.850,E,038.9,050.7,270819,000.0,W*71
$GPGGA,075003.580,3732.246,N,12706.859,E,1,12,1.0,0.0,M,0.0,M,,*61
$GPGSA,A,3,01,02,03,04,05,06,07,08,09,10,11,12,1.0,1.0,1.0*30
$GPRMC,075003.580,A,3732.246,N,12706.859,E,038.9,050.7,270819,000.0,W*70
$GPGGA,075004.580,3732.254,N,12706.869,E,1,12,1.0,0.0,M,0.0,M,,*66
$GPGSA,A,3,01,02,03,04,05,06,07,08,09,10,11,12,1.0,1.0,1.0*30
$GPRMC,075004.580,A,3732.254,N,12706.869,E,038.9,050.7,270819,000.0,W*77
$GPGGA,075005.580,3732.262,N,12706.878,E,1,12,1.0,0.0,M,0.0,M,,*62
$GPGSA,A,3,01,02,03,04,05,06,07,08,09,10,11,12,1.0,1.0,1.0*30
$GPRMC,075005.580,A,3732.262,N,12706.878,E,038.9,050.7,270819,000.0,W*73
$GPGGA,075006.580,3732.269,N,12706.888,E,1,12,1.0,0.0,M,0.0,M,,*65
$GPGSA,A,3,01,02,03,04,05,06,07,08,09,10,11,12,1.0,1.0,1.0*30
$GPRMC,075006.580,A,3732.269,N,12706.888,E,038.9,050.7,270819,000.0,W*74
$GPGGA,075007.580,3732.277,N,12706.897,E,1,12,1.0,0.0,M,0.0,M,,*65
$GPGSA,A,3,01,02,03,04,05,06,07,08,09,10,11,12,1.0,1.0,1.0*30
$GPRMC,075007.580,A,3732.277,N,12706.897,E,038.9,050.7,270819,000.0,W*74
$GPGGA,075008.580,3732.285,N,12706.907,E,1,12,1.0,0.0,M,0.0,M,,*6F
$GPGSA,A,3,01,02,03,04,05,06,07,08,09,10,11,12,1.0,1.0,1.0*30
$GPRMC,075008.580,A,3732.285,N,12706.907,E,038.9,050.7,270819,000.0,W*7E
$GPGGA,075009.580,3732.293,N,12706.916,E,1,12,1.0,0.0,M,0.0,M,,*69
$GPGSA,A,3,01,02,03,04,05,06,07,08,09,10,11,12,1.0,1.0,1.0*30
$GPRMC,075009.580,A,3732.293,N,12706.916,E,038.9,043.8,270819,000.0,W*75
$GPGGA,075010.580,3732.301,N,12706.924,E,1,12,1.0,0.0,M,0.0,M,,*6A
$GPGSA,A,3,01,02,03,04,05,06,07,08,09,10,11,12,1.0,1.0,1.0*30
$GPRMC,075010.580,A,3732.301,N,12706.924,E,038.9,043.8,270819,000.0,W*76
$GPGGA,075011.580,3732.310,N,12706.933,E,1,12,1.0,0.0,M,0.0,M,,*6D
$GPGSA,A,3,01,02,03,04,05,06,07,08,09,10,11,12,1.0,1.0,1.0*30
$GPRMC,075011.580,A,3732.310,N,12706.933,E,038.9,043.8,270819,000.0,W*71
$GPGGA,075012.580,3732.318,N,12706.941,E,1,12,1.0,0.0,M,0.0,M,,*63
$GPGSA,A,3,01,02,03,04,05,06,07,08,09,10,11,12,1.0,1.0,1.0*30
$GPRMC,075012.580,A,3732.318,N,12706.941,E,038.9,043.8,270819,000.0,W*7F
$GPGGA,075013.580,3732.327,N,12706.949,E,1,12,1.0,0.0,M,0.0,M,,*66
$GPGSA,A,3,01,02,03,04,05,06,07,08,09,10,11,12,1.0,1.0,1.0*30
$GPRMC,075013.580,A,3732.327,N,12706.949,E,038.9,043.8,270819,000.0,W*7A
$GPGGA,075014.580,3732.336,N,12706.957,E,1,12,1.0,0.0,M,0.0,M,,*6E
$GPGSA,A,3,01,02,03,04,05,06,07,08,09,10,11,12,1.0,1.0,1.0*30
$GPRMC,075014.580,A,3732.336,N,12706.957,E,038.9,043.8,270819,000.0,W*72
$GPGGA,075015.580,3732.344,N,12706.966,E,1,12,1.0,0.0,M,0.0,M,,*68
$GPGSA,A,3,01,02,03,04,05,06,07,08,09,10,11,12,1.0,1.0,1.0*30
$GPRMC,075015.580,A,3732.344,N,12706.966,E,038.9,043.8,270819,000.0,W*74
$GPGGA,075016.580,3732.353,N,12706.974,E,1,12,1.0,0.0,M,0.0,M,,*6E
$GPGSA,A,3,01,02,03,04,05,06,07,08,09,10,11,12,1.0,1.0,1.0*30
$GPRMC,075016.580,A,3732.353,N,12706.974,E,038.9,043.8,270819,000.0,W*72
$GPGGA,075017.580,3732.361,N,12706.982,E,1,12,1.0,0.0,M,0.0,M,,*67
$GPGSA,A,3,01,02,03,04,05,06,07,08,09,10,11,12,1.0,1.0,1.0*30
$GPRMC,075017.580,A,3732.361,N,12706.982,E,038.9,043.8,270819,000.0,W*7B
$GPGGA,075018.580,3732.370,N,12706.990,E,1,12,1.0,0.0,M,0.0,M,,*6B
$GPGSA,A,3,01,02,03,04,05,06,07,08,09,10,11,12,1.0,1.0,1.0*30
$GPRMC,075018.580,A,3732.370,N,12706.990,E,038.9,043.8,270819,000.0,W*77
$GPGGA,075019.580,3732.378,N,12706.999,E,1,12,1.0,0.0,M,0.0,M,,*6B
$GPGSA,A,3,01,02,03,04,05,06,07,08,09,10,11,12,1.0,1.0,1.0*30
$GPRMC,075019.580,A,3732.378,N,12706.999,E,038.9,043.8,270819,000.0,W*77
$GPGGA,075020.580,3732.387,N,12707.007,E,1,12,1.0,0.0,M,0.0,M,,*6E
$GPGSA,A,3,01,02,03,04,05,06,07,08,09,10,11,12,1.0,1.0,1.0*30
$GPRMC,075020.580,A,3732.387,N,12707.007,E,038.9,043.8,270819,000.0,W*72
$GPGGA,075021.580,3732.396,N,12707.015,E,1,12,1.0,0.0,M,0.0,M,,*6C
$GPGSA,A,3,01,02,03,04,05,06,07,08,09,10,11,12,1.0,1.0,1.0*30
$GPRMC,075021.580,A,3732.396,N,12707.015,E,038.9,043.8,270819,000.0,W*70
$GPGGA,075022.580,3732.404,N,12707.023,E,1,12,1.0,0.0,M,0.0,M,,*66
$GPGSA,A,3,01,02,03,04,05,06,07,08,09,10,11,12,1.0,1.0,1.0*30
$GPRMC,075022.580,A,3732.404,N,12707.023,E,038.9,043.8,270819,000.0,W*7A
$GPGGA,075023.580,3732.413,N,12707.032,E,1,12,1.0,0.0,M,0.0,M,,*61
$GPGSA,A,3,01,02,03,04,05,06,07,08,09,10,11,12,1.0,1.0,1.0*30
$GPRMC,075023.580,A,3732.413,N,12707.032,E,038.9,043.8,270819,000.0,W*7D
$GPGGA,075024.580,3732.421,N,12707.040,E,1,12,1.0,0.0,M,0.0,M,,*62
$GPGSA,A,3,01,02,03,04,05,06,07,08,09,10,11,12,1.0,1.0,1.0*30
$GPRMC,075024.580,A,3732.421,N,12707.040,E,038.9,043.8,270819,000.0,W*7E
$GPGGA,075025.580,3732.430,N,12707.048,E,1,12,1.0,0.0,M,0.0,M,,*6B
$GPGSA,A,3,01,02,03,04,05,06,07,08,09,10,11,12,1.0,1.0,1.0*30
$GPRMC,075025.580,A,3732.430,N,12707.048,E,038.9,043.8,270819,000.0,W*77
$GPGGA,075026.580,3732.439,N,12707.056,E,1,12,1.0,0.0,M,0.0,M,,*6E
$GPGSA,A,3,01,02,03,04,05,06,07,08,09,10,11,12,1.0,1.0,1.0*30
$GPRMC,075026.580,A,3732.439,N,12707.056,E,038.9,043.8,270819,000.0,W*72
$GPGGA,075027.580,3732.447,N,12707.065,E,1,12,1.0,0.0,M,0.0,M,,*66
$GPGSA,A,3,01,02,03,04,05,06,07,08,09,10,11,12,1.0,1.0,1.0*30
$GPRMC,075027.580,A,3732.447,N,12707.065,E,038.9,043.8,270819,000.0,W*7A
$GPGGA,075028.580,3732.456,N,12707.073,E,1,12,1.0,0.0,M,0.0,M,,*6E
$GPGSA,A,3,01,02,03,04,05,06,07,08,09,10,11,12,1.0,1.0,1.0*30
$GPRMC,075028.580,A,3732.456,N,12707.073,E,038.9,043.8,270819,000.0,W*72
$GPGGA,075029.580,3732.464,N,12707.081,E,1,12,1.0,0.0,M,0.0,M,,*63
$GPGSA,A,3,01,02,03,04,05,06,07,08,09,10,11,12,1.0,1.0,1.0*30
$GPRMC,075029.580,A,3732.464,N,12707.081,E,038.9,043.8,270819,000.0,W*7F
$GPGGA,075030.580,3732.473,N,12707.089,E,1,12,1.0,0.0,M,0.0,M,,*65
$GPGSA,A,3,01,02,03,04,05,06,07,08,09,10,11,12,1.0,1.0,1.0*30
$GPRMC,075030.580,A,3732.473,N,12707.089,E,038.9,043.8,270819,000.0,W*79
$GPGGA,075031.580,3732.481,N,12707.098,E,1,12,1.0,0.0,M,0.0,M,,*69
$GPGSA,A,3,01,02,03,04,05,06,07,08,09,10,11,12,1.0,1.0,1.0*30
$GPRMC,075031.580,A,3732.481,N,12707.098,E,038.9,043.8,270819,000.0,W*75
$GPGGA,075032.580,3732.490,N,12707.106,E,1,12,1.0,0.0,M,0.0,M,,*6C
$GPGSA,A,3,01,02,03,04,05,06,07,08,09,10,11,12,1.0,1.0,1.0*30
$GPRMC,075032.580,A,3732.490,N,12707.106,E,038.9,043.8,270819,000.0,W*70
$GPGGA,075033.580,3732.499,N,12707.114,E,1,12,1.0,0.0,M,0.0,M,,*67
$GPGSA,A,3,01,02,03,04,05,06,07,08,09,10,11,12,1.0,1.0,1.0*30
$GPRMC,075033.580,A,3732.499,N,12707.114,E,038.9,043.8,270819,000.0,W*7B
$GPGGA,075034.580,3732.507,N,12707.123,E,1,12,1.0,0.0,M,0.0,M,,*62
$GPGSA,A,3,01,02,03,04,05,06,07,08,09,10,11,12,1.0,1.0,1.0*30
$GPRMC,075034.580,A,3732.507,N,12707.123,E,038.9,043.8,270819,000.0,W*7E
$GPGGA,075035.580,3732.516,N,12707.131,E,1,12,1.0,0.0,M,0.0,M,,*60
$GPGSA,A,3,01,02,03,04,05,06,07,08,09,10,11,12,1.0,1.0,1.0*30
$GPRMC,075035.580,A,3732.516,N,12707.131,E,038.9,043.8,270819,000.0,W*7C
$GPGGA,075036.580,3732.524,N,12707.139,E,1,12,1.0,0.0,M,0.0,M,,*6A
$GPGSA,A,3,01,02,03,04,05,06,07,08,09,10,11,12,1.0,1.0,1.0*30
$GPRMC,075036.580,A,3732.524,N,12707.139,E,038.9,043.8,270819,000.0,W*76
$GPGGA,075037.580,3732.533,N,12707.147,E,1,12,1.0,0.0,M,0.0,M,,*64
$GPGSA,A,3,01,02,03,04,05,06,07,08,09,10,11,12,1.0,1.0,1.0*30
$GPRMC,075037.580,A,3732.533,N,12707.147,E,038.9,043.8,270819,000.0,W*78
$GPGGA,075038.580,3732.541,N,12707.156,E,1,12,1.0,0.0,M,0.0,M,,*6E
$GPGSA,A,3,01,02,03,04,05,06,07,08,09,10,11,12,1.0,1.0,1.0*30
$GPRMC,075038.580,A,3732.541,N,12707.156,E,038.9,043.8,270819,000.0,W*72
$GPGGA,075039.580,3732.550,N,12707.164,E,1,12,1.0,0.0,M,0.0,M,,*6E
$GPGSA,A,3,01,02,03,04,05,06,07,08,09,10,11,12,1.0,1.0,1.0*30
$GPRMC,075039.580,A,3732.550,N,12707.164,E,038.9,043.8,270819,000.0,W*72
$GPGGA,075040.580,3732.559,N,12707.172,E,1,12,1.0,0.0,M,0.0,M,,*6E
$GPGSA,A,3,01,02,03,04,05,06,07,08,09,10,11,12,1.0,1.0,1.0*30
$GPRMC,075040.580,A,3732.559,N,12707.172,E,038.9,043.8,270819,000.0,W*72
$GPGGA,075041.580,3732.567,N,12707.180,E,1,12,1.0,0.0,M,0.0,M,,*6F
$GPGSA,A,3,01,02,03,04,05,06,07,08,09,10,11,12,1.0,1.0,1.0*30
$GPRMC,075041.580,A,3732.567,N,12707.180,E,038.9,043.8,270819,000.0,W*73
$GPGGA,075042.580,3732.576,N,12707.189,E,1,12,1.0,0.0,M,0.0,M,,*65
$GPGSA,A,3,01,02,03,04,05,06,07,08,09,10,11,12,1.0,1.0,1.0*30
$GPRMC,075042.580,A,3732.576,N,12707.189,E,038.9,043.8,270819,000.0,W*79
$GPGGA,075043.580,3732.584,N,12707.197,E,1,12,1.0,0.0,M,0.0,M,,*66
$GPGSA,A,3,01,02,03,04,05,06,07,08,09,10,11,12,1.0,1.0,1.0*30
$GPRMC,075043.580,A,3732.584,N,12707.197,E,038.9,043.8,270819,000.0,W*7A
$GPGGA,075044.580,3732.593,N,12707.205,E,1,12,1.0,0.0,M,0.0,M,,*6F
$GPGSA,A,3,01,02,03,04,05,06,07,08,09,10,11,12,1.0,1.0,1.0*30
$GPRMC,075044.580,A,3732.593,N,12707.205,E,038.9,043.8,270819,000.0,W*73
$GPGGA,075045.580,3732.602,N,12707.213,E,1,12,1.0,0.0,M,0.0,M,,*62
$GPGSA,A,3,01,02,03,04,05,06,07,08,09,10,11,12,1.0,1.0,1.0*30
$GPRMC,075045.580,A,3732.602,N,12707.213,E,038.9,023.2,270819,000.0,W*72
$GPGGA,075046.580,3732.612,N,12707.218,E,1,12,1.0,0.0,M,0.0,M,,*6B
$GPGSA,A,3,01,02,03,04,05,06,07,08,09,10,11,12,1.0,1.0,1.0*30
$GPRMC,075046.580,A,3732.612,N,12707.218,E,038.9,023.2,270819,000.0,W*7B
$GPGGA,075047.580,3732.622,N,12707.222,E,1,12,1.0,0.0,M,0.0,M,,*60
$GPGSA,A,3,01,02,03,04,05,06,07,08,09,10,11,12,1.0,1.0,1.0*30
$GPRMC,075047.580,A,3732.622,N,12707.222,E,038.9,023.2,270819,000.0,W*70
$GPGGA,075048.580,3732.632,N,12707.227,E,1,12,1.0,0.0,M,0.0,M,,*6B
$GPGSA,A,3,01,02,03,04,05,06,07,08,09,10,11,12,1.0,1.0,1.0*30
$GPRMC,075048.580,A,3732.632,N,12707.227,E,038.9,023.2,270819,000.0,W*7B
$GPGGA,075049.580,3732.642,N,12707.231,E,1,12,1.0,0.0,M,0.0,M,,*6A
$GPGSA,A,3,01,02,03,04,05,06,07,08,09,10,11,12,1.0,1.0,1.0*30
$GPRMC,075049.580,A,3732.642,N,12707.231,E,038.9,023.2,270819,000.0,W*7A
$GPGGA,075050.580,3732.653,N,12707.235,E,1,12,1.0,0.0,M,0.0,M,,*66
$GPGSA,A,3,01,02,03,04,05,06,07,08,09,10,11,12,1.0,1.0,1.0*30
$GPRMC,075050.580,A,3732.653,N,12707.235,E,038.9,023.2,270819,000.0,W*76
$GPGGA,075051.580,3732.663,N,12707.240,E,1,12,1.0,0.0,M,0.0,M,,*66
$GPGSA,A,3,01,02,03,04,05,06,07,08,09,10,11,12,1.0,1.0,1.0*30
$GPRMC,075051.580,A,3732.663,N,12707.240,E,038.9,023.2,270819,000.0,W*76
$GPGGA,075052.580,3732.673,N,12707.244,E,1,12,1.0,0.0,M,0.0,M,,*60
$GPGSA,A,3,01,02,03,04,05,06,07,08,09,10,11,12,1.0,1.0,1.0*30
$GPRMC,075052.580,A,3732.673,N,12707.244,E,038.9,023.2,270819,000.0,W*70
$GPGGA,075053.580,3732.683,N,12707.248,E,1,12,1.0,0.0,M,0.0,M,,*62
$GPGSA,A,3,01,02,03,04,05,06,07,08,09,10,11,12,1.0,1.0,1.0*30
$GPRMC,075053.580,A,3732.683,N,12707.248,E,038.9,023.2,270819,000.0,W*72
$GPGGA,075054.580,3732.693,N,12707.253,E,1,12,1.0,0.0,M,0.0,M,,*6E
$GPGSA,A,3,01,02,03,04,05,06,07,08,09,10,11,12,1.0,1.0,1.0*30
$GPRMC,075054.580,A,3732.693,N,12707.253,E,038.9,023.2,270819,000.0,W*7E
$GPGGA,075055.580,3732.704,N,12707.257,E,1,12,1.0,0.0,M,0.0,M,,*64
$GPGSA,A,3,01,02,03,04,05,06,07,08,09,10,11,12,1.0,1.0,1.0*30
$GPRMC,075055.580,A,3732.704,N,12707.257,E,038.9,023.2,270819,000.0,W*74
$GPGGA,075056.580,3732.714,N,12707.262,E,1,12,1.0,0.0,M,0.0,M,,*60
$GPGSA,A,3,01,02,03,04,05,06,07,08,09,10,11,12,1.0,1.0,1.0*30
$GPRMC,075056.580,A,3732.714,N,12707.262,E,038.9,023.2,270819,000.0,W*70
$GPGGA,075057.580,3732.724,N,12707.266,E,1,12,1.0,0.0,M,0.0,M,,*66
$GPGSA,A,3,01,02,03,04,05,06,07,08,09,10,11,12,1.0,1.0,1.0*30
$GPRMC,075057.580,A,3732.724,N,12707.266,E,038.9,023.2,270819,000.0,W*76
$GPGGA,075058.580,3732.734,N,12707.270,E,1,12,1.0,0.0,M,0.0,M,,*6F
$GPGSA,A,3,01,02,03,04,05,06,07,08,09,10,11,12,1.0,1.0,1.0*30
$GPRMC,075058.580,A,3732.734,N,12707.270,E,038.9,023.2,270819,000.0,W*7F
$GPGGA,075059.580,3732.745,N,12707.275,E,1,12,1.0,0.0,M,0.0,M,,*6D
$GPGSA,A,3,01,02,03,04,05,06,07,08,09,10,11,12,1.0,1.0,1.0*30
$GPRMC,075059.580,A,3732.745,N,12707.275,E,038.9,023.2,270819,000.0,W*7D
$GPGGA,075100.580,3732.755,N,12707.279,E,1,12,1.0,0.0,M,0.0,M,,*6D
$GPGSA,A,3,01,02,03,04,05,06,07,08,09,10,11,12,1.0,1.0,1.0*30
$GPRMC,075100.580,A,3732.755,N,12707.279,E,038.9,023.2,270819,000.0,W*7D
$GPGGA,075101.580,3732.765,N,12707.284,E,1,12,1.0,0.0,M,0.0,M,,*6D
$GPGSA,A,3,01,02,03,04,05,06,07,08,09,10,11,12,1.0,1.0,1.0*30
$GPRMC,075101.580,A,3732.765,N,12707.284,E,038.9,023.2,270819,000.0,W*7D
$GPGGA,075102.580,3732.775,N,12707.288,E,1,12,1.0,0.0,M,0.0,M,,*63
$GPGSA,A,3,01,02,03,04,05,06,07,08,09,10,11,12,1.0,1.0,1.0*30
$GPRMC,075102.580,A,3732.775,N,12707.288,E,038.9,023.2,270819,000.0,W*73
$GPGGA,075103.580,3732.785,N,12707.292,E,1,12,1.0,0.0,M,0.0,M,,*66
$GPGSA,A,3,01,02,03,04,05,06,07,08,09,10,11,12,1.0,1.0,1.0*30
$GPRMC,075103.580,A,3732.785,N,12707.292,E,038.9,023.2,270819,000.0,W*76
$GPGGA,075104.580,3732.796,N,12707.297,E,1,12,1.0,0.0,M,0.0,M,,*66
$GPGSA,A,3,01,02,03,04,05,06,07,08,09,10,11,12,1.0,1.0,1.0*30
$GPRMC,075104.580,A,3732.796,N,12707.297,E,038.9,023.2,270819,000.0,W*76
$GPGGA,075105.580,3732.806,N,12707.301,E,1,12,1.0,0.0,M,0.0,M,,*6F
$GPGSA,A,3,01,02,03,04,05,06,07,08,09,10,11,12,1.0,1.0,1.0*30
$GPRMC,075105.580,A,3732.806,N,12707.301,E,038.9,023.2,270819,000.0,W*7F
$GPGGA,075106.580,3732.816,N,12707.306,E,1,12,1.0,0.0,M,0.0,M,,*6A
$GPGSA,A,3,01,02,03,04,05,06,07,08,09,10,11,12,1.0,1.0,1.0*30
$GPRMC,075106.580,A,3732.816,N,12707.306,E,038.9,023.2,270819,000.0,W*7A
$GPGGA,075107.580,3732.826,N,12707.310,E,1,12,1.0,0.0,M,0.0,M,,*6F
$GPGSA,A,3,01,02,03,04,05,06,07,08,09,10,11,12,1.0,1.0,1.0*30
$GPRMC,075107.580,A,3732.826,N,12707.310,E,038.9,023.2,270819,000.0,W*7F
$GPGGA,075108.580,3732.836,N,12707.314,E,1,12,1.0,0.0,M,0.0,M,,*65
$GPGSA,A,3,01,02,03,04,05,06,07,08,09,10,11,12,1.0,1.0,1.0*30
$GPRMC,075108.580,A,3732.836,N,12707.314,E,038.9,023.2,270819,000.0,W*75
$GPGGA,075109.580,3732.847,N,12707.319,E,1,12,1.0,0.0,M,0.0,M,,*6F
$GPGSA,A,3,01,02,03,04,05,06,07,08,09,10,11,12,1.0,1.0,1.0*30
$GPRMC,075109.580,A,3732.847,N,12707.319,E,038.9,023.2,270819,000.0,W*7F
$GPGGA,075110.580,3732.857,N,12707.323,E,1,12,1.0,0.0,M,0.0,M,,*6F
$GPGSA,A,3,01,02,03,04,05,06,07,08,09,10,11,12,1.0,1.0,1.0*30
$GPRMC,075110.580,A,3732.857,N,12707.323,E,038.9,023.2,270819,000.0,W*7F
$GPGGA,075111.580,3732.867,N,12707.328,E,1,12,1.0,0.0,M,0.0,M,,*66
$GPGSA,A,3,01,02,03,04,05,06,07,08,09,10,11,12,1.0,1.0,1.0*30
$GPRMC,075111.580,A,3732.867,N,12707.328,E,038.9,023.2,270819,000.0,W*76
$GPGGA,075112.580,3732.877,N,12707.332,E,1,12,1.0,0.0,M,0.0,M,,*6F
$GPGSA,A,3,01,02,03,04,05,06,07,08,09,10,11,12,1.0,1.0,1.0*30
$GPRMC,075112.580,A,3732.877,N,12707.332,E,038.9,023.2,270819,000.0,W*7F
$GPGGA,075113.580,3732.888,N,12707.336,E,1,12,1.0,0.0,M,0.0,M,,*6A
$GPGSA,A,3,01,02,03,04,05,06,07,08,09,10,11,12,1.0,1.0,1.0*30
$GPRMC,075113.580,A,3732.888,N,12707.336,E,038.9,023.2,270819,000.0,W*7A
$GPGGA,075114.580,3732.898,N,12707.341,E,1,12,1.0,0.0,M,0.0,M,,*6C
$GPGSA,A,3,01,02,03,04,05,06,07,08,09,10,11,12,1.0,1.0,1.0*30
$GPRMC,075114.580,A,3732.898,N,12707.341,E,038.9,023.2,270819,000.0,W*7C
$GPGGA,075115.580,3732.908,N,12707.345,E,1,12,1.0,0.0,M,0.0,M,,*61
$GPGSA,A,3,01,02,03,04,05,06,07,08,09,10,11,12,1.0,1.0,1.0*30
$GPRMC,075115.580,A,3732.908,N,12707.345,E,038.9,023.2,270819,000.0,W*71
$GPGGA,075116.580,3732.918,N,12707.350,E,1,12,1.0,0.0,M,0.0,M,,*67
$GPGSA,A,3,01,02,03,04,05,06,07,08,09,10,11,12,1.0,1.0,1.0*30
$GPRMC,075116.580,A,3732.918,N,12707.350,E,038.9,023.2,270819,000.0,W*77
$GPGGA,075117.580,3732.928,N,12707.354,E,1,12,1.0,0.0,M,0.0,M,,*61
$GPGSA,A,3,01,02,03,04,05,06,07,08,09,10,11,12,1.0,1.0,1.0*30
$GPRMC,075117.580,A,3732.928,N,12707.354,E,038.9,023.2,270819,000.0,W*71
$GPGGA,075118.580,3732.939,N,12707.358,E,1,12,1.0,0.0,M,0.0,M,,*62
$GPGSA,A,3,01,02,03,04,05,06,07,08,09,10,11,12,1.0,1.0,1.0*30
$GPRMC,075118.580,A,3732.939,N,12707.358,E,038.9,023.2,270819,000.0,W*72
$GPGGA,075119.580,3732.949,N,12707.363,E,1,12,1.0,0.0,M,0.0,M,,*6C
$GPGSA,A,3,01,02,03,04,05,06,07,08,09,10,11,12,1.0,1.0,1.0*30
$GPRMC,075119.580,A,3732.949,N,12707.363,E,038.9,023.2,270819,000.0,W*7C
$GPGGA,075120.580,3732.959,N,12707.367,E,1,12,1.0,0.0,M,0.0,M,,*63
$GPGSA,A,3,01,02,03,04,05,06,07,08,09,10,11,12,1.0,1.0,1.0*30
$GPRMC,075120.580,A,3732.959,N,12707.367,E,038.9,021.5,270819,000.0,W*76
$GPGGA,075121.580,3732.969,N,12707.371,E,1,12,1.0,0.0,M,0.0,M,,*66
$GPGSA,A,3,01,02,03,04,05,06,07,08,09,10,11,12,1.0,1.0,1.0*30
$GPRMC,075121.580,A,3732.969,N,12707.371,E,038.9,021.5,270819,000.0,W*73
$GPGGA,075122.580,3732.980,N,12707.375,E,1,12,1.0,0.0,M,0.0,M,,*66
$GPGSA,A,3,01,02,03,04,05,06,07,08,09,10,11,12,1.0,1.0,1.0*30
$GPRMC,075122.580,A,3732.980,N,12707.375,E,038.9,021.5,270819,000.0,W*73
$GPGGA,075123.580,3732.990,N,12707.379,E,1,12,1.0,0.0,M,0.0,M,,*6A
$GPGSA,A,3,01,02,03,04,05,06,07,08,09,10,11,12,1.0,1.0,1.0*30
$GPRMC,075123.580,A,3732.990,N,12707.379,E,038.9,021.5,270819,000.0,W*7F
$GPGGA,075124.580,3733.000,N,12707.383,E,1,12,1.0,0.0,M,0.0,M,,*69
$GPGSA,A,3,01,02,03,04,05,06,07,08,09,10,11,12,1.0,1.0,1.0*30
$GPRMC,075124.580,A,3733.000,N,12707.383,E,038.9,021.5,270819,000.0,W*7C
$GPGGA,075125.580,3733.011,N,12707.387,E,1,12,1.0,0.0,M,0.0,M,,*6C
$GPGSA,A,3,01,02,03,04,05,06,07,08,09,10,11,12,1.0,1.0,1.0*30
$GPRMC,075125.580,A,3733.011,N,12707.387,E,038.9,021.5,270819,000.0,W*79
$GPGGA,075126.580,3733.021,N,12707.391,E,1,12,1.0,0.0,M,0.0,M,,*6B
$GPGSA,A,3,01,02,03,04,05,06,07,08,09,10,11,12,1.0,1.0,1.0*30
$GPRMC,075126.580,A,3733.021,N,12707.391,E,038.9,021.5,270819,000.0,W*7E
$GPGGA,075127.580,3733.031,N,12707.396,E,1,12,1.0,0.0,M,0.0,M,,*6C
$GPGSA,A,3,01,02,03,04,05,06,07,08,09,10,11,12,1.0,1.0,1.0*30
$GPRMC,075127.580,A,3733.031,N,12707.396,E,038.9,021.5,270819,000.0,W*79
$GPGGA,075128.580,3733.041,N,12707.400,E,1,12,1.0,0.0,M,0.0,M,,*6C
$GPGSA,A,3,01,02,03,04,05,06,07,08,09,10,11,12,1.0,1.0,1.0*30
$GPRMC,075128.580,A,3733.041,N,12707.400,E,038.9,021.5,270819,000.0,W*79
$GPGGA,075129.580,3733.052,N,12707.404,E,1,12,1.0,0.0,M,0.0,M,,*6B
$GPGSA,A,3,01,02,03,04,05,06,07,08,09,10,11,12,1.0,1.0,1.0*30
$GPRMC,075129.580,A,3733.052,N,12707.404,E,038.9,021.5,270819,000.0,W*7E
$GPGGA,075130.580,3733.062,N,12707.408,E,1,12,1.0,0.0,M,0.0,M,,*6C
$GPGSA,A,3,01,02,03,04,05,06,07,08,09,10,11,12,1.0,1.0,1.0*30
$GPRMC,075130.580,A,3733.062,N,12707.408,E,038.9,021.5,270819,000.0,W*79
$GPGGA,075131.580,3733.072,N,12707.412,E,1,12,1.0,0.0,M,0.0,M,,*67
$GPGSA,A,3,01,02,03,04,05,06,07,08,09,10,11,12,1.0,1.0,1.0*30
$GPRMC,075131.580,A,3733.072,N,12707.412,E,038.9,021.5,270819,000.0,W*72
$GPGGA,075132.580,3733.083,N,12707.416,E,1,12,1.0,0.0,M,0.0,M,,*6E
$GPGSA,A,3,01,02,03,04,05,06,07,08,09,10,11,12,1.0,1.0,1.0*30
$GPRMC,075132.580,A,3733.083,N,12707.416,E,038.9,058.0,270819,000.0,W*70
$GPGGA,075133.580,3733.089,N,12707.427,E,1,12,1.0,0.0,M,0.0,M,,*67
$GPGSA,A,3,01,02,03,04,05,06,07,08,09,10,11,12,1.0,1.0,1.0*30
$GPRMC,075133.580,A,3733.089,N,12707.427,E,038.9,058.0,270819,000.0,W*79
$GPGGA,075134.580,3733.096,N,12707.437,E,1,12,1.0,0.0,M,0.0,M,,*6F
$GPGSA,A,3,01,02,03,04,05,06,07,08,09,10,11,12,1.0,1.0,1.0*30
$GPRMC,075134.580,A,3733.096,N,12707.437,E,038.9,112.6,270819,000.0,W*78
$GPGGA,075135.580,3733.091,N,12707.449,E,1,12,1.0,0.0,M,0.0,M,,*60
$GPGSA,A,3,01,02,03,04,05,06,07,08,09,10,11,12,1.0,1.0,1.0*30
$GPRMC,075135.580,A,3733.091,N,12707.449,E,038.9,112.6,270819,000.0,W*77
$GPGGA,075136.580,3733.086,N,12707.461,E,1,12,1.0,0.0,M,0.0,M,,*6F
$GPGSA,A,3,01,02,03,04,05,06,07,08,09,10,11,12,1.0,1.0,1.0*30
$GPRMC,075136.580,A,3733.086,N,12707.461,E,038.9,112.6,270819,000.0,W*78
$GPGGA,075137.580,3733.081,N,12707.473,E,1,12,1.0,0.0,M,0.0,M,,*6A
$GPGSA,A,3,01,02,03,04,05,06,07,08,09,10,11,12,1.0,1.0,1.0*30
$GPRMC,075137.580,A,3733.081,N,12707.473,E,038.9,112.6,270819,000.0,W*7D
$GPGGA,075138.580,3733.076,N,12707.485,E,1,12,1.0,0.0,M,0.0,M,,*64
$GPGSA,A,3,01,02,03,04,05,06,07,08,09,10,11,12,1.0,1.0,1.0*30
$GPRMC,075138.580,A,3733.076,N,12707.485,E,038.9,112.6,270819,000.0,W*73
$GPGGA,075139.580,3733.071,N,12707.498,E,1,12,1.0,0.0,M,0.0,M,,*6E
$GPGSA,A,3,01,02,03,04,05,06,07,08,09,10,11,12,1.0,1.0,1.0*30
$GPRMC,075139.580,A,3733.071,N,12707.498,E,038.9,112.6,270819,000.0,W*79
$GPGGA,075140.580,3733.066,N,12707.510,E,1,12,1.0,0.0,M,0.0,M,,*67
$GPGSA,A,3,01,02,03,04,05,06,07,08,09,10,11,12,1.0,1.0,1.0*30
$GPRMC,075140.580,A,3733.066,N,12707.510,E,038.9,112.6,270819,000.0,W*70
$GPGGA,075141.580,3733.061,N,12707.522,E,1,12,1.0,0.0,M,0.0,M,,*60
$GPGSA,A,3,01,02,03,04,05,06,07,08,09,10,11,12,1.0,1.0,1.0*30
$GPRMC,075141.580,A,3733.061,N,12707.522,E,038.9,112.6,270819,000.0,W*77
$GPGGA,075142.580,3733.056,N,12707.534,E,1,12,1.0,0.0,M,0.0,M,,*60
$GPGSA,A,3,01,02,03,04,05,06,07,08,09,10,11,12,1.0,1.0,1.0*30
$GPRMC,075142.580,A,3733.056,N,12707.534,E,038.9,112.6,270819,000.0,W*77
$GPGGA,075143.580,3733.051,N,12707.546,E,1,12,1.0,0.0,M,0.0,M,,*63
$GPGSA,A,3,01,02,03,04,05,06,07,08,09,10,11,12,1.0,1.0,1.0*30
$GPRMC,075143.580,A,3733.051,N,12707.546,E,038.9,112.6,270819,000.0,W*74
$GPGGA,075144.580,3733.046,N,12707.558,E,1,12,1.0,0.0,M,0.0,M,,*6D
$GPGSA,A,3,01,02,03,04,05,06,07,08,09,10,11,12,1.0,1.0,1.0*30
$GPRMC,075144.580,A,3733.046,N,12707.558,E,038.9,112.6,270819,000.0,W*7A
$GPGGA,075145.580,3733.041,N,12707.570,E,1,12,1.0,0.0,M,0.0,M,,*61
$GPGSA,A,3,01,02,03,04,05,06,07,08,09,10,11,12,1.0,1.0,1.0*30
$GPRMC,075145.580,A,3733.041,N,12707.570,E,038.9,112.6,270819,000.0,W*76
$GPGGA,075146.580,3733.036,N,12707.582,E,1,12,1.0,0.0,M,0.0,M,,*6F
$GPGSA,A,3,01,02,03,04,05,06,07,08,09,10,11,12,1.0,1.0,1.0*30
$GPRMC,075146.580,A,3733.036,N,12707.582,E,038.9,112.6,270819,000.0,W*78
$GPGGA,075147.580,3733.031,N,12707.594,E,1,12,1.0,0.0,M,0.0,M,,*6E
$GPGSA,A,3,01,02,03,04,05,06,07,08,09,10,11,12,1.0,1.0,1.0*30
$GPRMC,075147.580,A,3733.031,N,12707.594,E,038.9,112.6,270819,000.0,W*79
$GPGGA,075148.580,3733.026,N,12707.606,E,1,12,1.0,0.0,M,0.0,M,,*6F
$GPGSA,A,3,01,02,03,04,05,06,07,08,09,10,11,12,1.0,1.0,1.0*30
$GPRMC,075148.580,A,3733.026,N,12707.606,E,038.9,112.6,270819,000.0,W*78
$GPGGA,075149.580,3733.021,N,12707.618,E,1,12,1.0,0.0,M,0.0,M,,*66
$GPGSA,A,3,01,02,03,04,05,06,07,08,09,10,11,12,1.0,1.0,1.0*30
$GPRMC,075149.580,A,3733.021,N,12707.618,E,038.9,112.6,270819,000.0,W*71
$GPGGA,075150.580,3733.016,N,12707.630,E,1,12,1.0,0.0,M,0.0,M,,*60
$GPGSA,A,3,01,02,03,04,05,06,07,08,09,10,11,12,1.0,1.0,1.0*30
$GPRMC,075150.580,A,3733.016,N,12707.630,E,038.9,112.6,270819,000.0,W*77
$GPGGA,075151.580,3733.011,N,12707.642,E,1,12,1.0,0.0,M,0.0,M,,*63
$GPGSA,A,3,01,02,03,04,05,06,07,08,09,10,11,12,1.0,1.0,1.0*30
$GPRMC,075151.580,A,3733.011,N,12707.642,E,038.9,112.6,270819,000.0,W*74
